Code,School Name,Street,Suburb,State,Postcode,Postal Street,Postal Suburb,Postal State,Postal Postcode,Latitude,Longitude,Courier Code,Phone,Education Region,Broad Classification,Classification Group,Low Year,High Year,KIN,PPR,Y01,Y02,Y03,Y04,Y05,Y06,UPR,Y07,Y08,Y09,Y10,Y11,Y12,USE,Total Students
5001,ADAM ROAD PRIMARY SCHOOL,HOTCHIN STREET,SOUTH BUNBURY,WA,6230,HOTCHIN STREET,SOUTH BUNBURY,WA,6230,-33.357951,115.635371,POST,08 9796 3000,SOUTH WEST,Primary Schools,PRIMARY SCHOOLS,KIN,Y06,59,71,64,48,55,58,46,73,,,,,,,,,474
1397,AL-HIDAYAH ISLAMIC SCHOOL,CNR HEDLEY ST/NYAMUP WAY,BENTLEY,WA,6102,CNR HEDLEY ST/NYAMUP WAY,BENTLEY,WA,6102,-32.01035814,115.9115641,POST,08 9351 8593,SOUTH METROPOLITAN,NON-GOVT SCHOOLS,NON-GOVERNMENT,PPR,Y06,,31,32,33,33,35,26,22,,,,,,,,,212
8001,ALBANY COMMUNITY KINDERGARTEN,136 SERPENTINE ROAD,ALBANY,WA,6330,PO BOX 5670,ALBANY,WA,6332,-35.02145966,117.88098687,POST,08 9841 1864,SOUTH WEST,Community Kindergartens,COMMUNITY KINDERGARTENS,KIN,KIN,40,,,,,,,,,,,,,,,,40
5002,ALBANY PRIMARY SCHOOL,SUFFOLK STREET,ALBANY,WA,6330,SUFFOLK STREET,ALBANY,WA,6330,-35.01821151,117.8916106,POST,08 9842 7400,SOUTH WEST,Primary Schools,PRIMARY SCHOOLS,KIN,Y06,20,50,64,56,57,62,64,57,,,,,,,,,430
6151,ALBANY SECONDARY EDUCATION SUPPORT CENTRE,65 ANSON ROAD,ALBANY,WA,6330,65 ANSON ROAD,ALBANY,WA,6330,-34.99074882,117.8668674,POST,08 9841 4900,SOUTH WEST,Education Support Centres,EDUCATION SUPPORT,Y07,Y12,,,,,,,,,,4,11,7,8,13,7,,50
4001,ALBANY SENIOR HIGH SCHOOL,1 CAMPBELL ROAD,ALBANY,WA,6330,1 CAMPBELL ROAD,ALBANY,WA,6330,-35.02044765,117.8917733,POST,08 9841 0444,SOUTH WEST,Senior High Schools,SECONDARY SCHOOLS,Y07,Y12,,,,,,,,,,184,200,166,154,168,133,,1005
5693,ALINJARRA PRIMARY SCHOOL,33 NORTHUMBERLAND AVENUE,ALEXANDER HEIGHTS,WA,6064,33 NORTHUMBERLAND AVENUE,ALEXANDER HEIGHTS,WA,6064,-31.82962571,115.87014015,POST,08 9462 9950,NORTH METROPOLITAN,Primary Schools,PRIMARY SCHOOLS,KIN,Y06,36,48,43,35,48,53,52,41,,,,,,,,,356
1488,ALKIMOS BAPTIST COLLEGE,60 SEAGROVE BOULEVARD,MERRIWA,WA,6030,60 SEAGROVE BOULEVARD,MERRIWA,WA,6030,-31.66032819,115.71017847,POST,08 9406 8189,NORTH METROPOLITAN,NON-GOVT SCHOOLS,NON-GOVERNMENT,KIN,Y12,20,19,23,11,20,16,16,32,,27,28,26,30,19,14,,301
5848,ALKIMOS BEACH PRIMARY SCHOOL,200 LEATHERBACK BOULEVARD,ALKIMOS,WA,6038,200 LEATHERBACK BOULEVARD,ALKIMOS,WA,6038,-31.626524,115.680669,POST,08 9561 7200,NORTH METROPOLITAN,Primary Schools,PRIMARY SCHOOLS,KIN,Y06,116,104,107,83,89,73,58,48,,,,,,,,,678
4211,ALKIMOS COLLEGE,101 SANTORINI PROMENADE,ALKIMOS,WA,6038,101 SANTORINI PROMENADE,ALKIMOS,WA,6038,-31.629987,115.694233,UNKNOWN,08 9561 7300,NORTH METROPOLITAN,Senior High Schools,SECONDARY SCHOOLS,Y07,Y07,,,,,,,,,,176,,,,,,,176
5844,ALKIMOS PRIMARY SCHOOL,340 BENENDEN AVENUE,ALKIMOS,WA,6038,340 BENENDEN AVENUE,ALKIMOS,WA,6038,-31.62699105,115.70265726,POST,08 9562 9800,NORTH METROPOLITAN,Primary Schools,PRIMARY SCHOOLS,KIN,Y06,82,69,89,86,82,76,82,56,,,,,,,,,622
1277,ALL SAINTS' COLLEGE,28 EWING AVENUE,BULL CREEK,WA,6149,28 EWING AVENUE,BULL CREEK,WA,6149,-32.04946998,115.86702296,POST,08 9313 9333,SOUTH METROPOLITAN,NON-GOVT SCHOOLS,NON-GOVERNMENT,KIN,Y12,95,46,51,50,49,59,85,85,,124,138,122,151,143,148,,1346
5006,ALLANSON PRIMARY SCHOOL,CAMERON STREET,ALLANSON,WA,6225,CAMERON STREET,ALLANSON,WA,6225,-33.33580893,116.099005,POST,08 9735 2800,SOUTH WEST,Primary Schools,PRIMARY SCHOOLS,KIN,Y06,9,11,11,8,17,10,15,12,,,,,,,,,93
5007,ALLENDALE PRIMARY SCHOOL,52 WITTENOOM STREET,GERALDTON,WA,6530,52 WITTENOOM STREET,GERALDTON,WA,6530,-28.76430303,114.6237354,POST,08 9964 1888,MIDWEST,Primary Schools,PRIMARY SCHOOLS,KIN,Y06,42,47,56,45,46,52,47,51,,,,,,,,,386
1478,ALTA-1,4A/14 UPPILL PLACE,WANGARA,WA,6065,4A/14 UPPILL PLACE,WANGARA,WA,6065,-31.78537164,115.8133126,POST,08 9403 8200,NORTH METROPOLITAN,NON-GOVT SCHOOLS,NON-GOVERNMENT,Y08,Y12,,,,,,,,,,,288,,,580,42,,910
5008,AMAROO PRIMARY SCHOOL,79 JONES STREET,COLLIE,WA,6225,79 JONES STREET,COLLIE,WA,6225,-33.35205078,116.14966304,POST,08 9735 9400,SOUTH WEST,Primary Schools,PRIMARY SCHOOLS,KIN,Y06,34,36,28,39,43,37,38,34,,,,,,,,,289
5841,ANNE HAMERSLEY PRIMARY SCHOOL,16 DUNNETT DRIVE,ELLENBROOK,WA,6069,16 DUNNETT DRIVE,ELLENBROOK,WA,6069,-31.74539641,116.00871729,POST,08 9297 7000,NORTH METROPOLITAN,Primary Schools,PRIMARY SCHOOLS,KIN,Y06,79,85,50,73,63,85,57,47,,,,,,,,,539
5509,ANZAC TERRACE PRIMARY SCHOOL,176 ANZAC TERRACE,BASSENDEAN,WA,6054,176 ANZAC TERRACE,BASSENDEAN,WA,6054,-31.89719261,115.93725306,POST,08 9352 2600,NORTH METROPOLITAN,Primary Schools,PRIMARY SCHOOLS,KIN,Y06,41,47,51,49,46,52,38,46,,,,,,,,,370
5010,APPLECROSS PRIMARY SCHOOL,65 KINTAIL ROAD,APPLECROSS,WA,6153,65 KINTAIL ROAD,APPLECROSS,WA,6153,-32.01084327,115.83959838,POST,08 9364 1792,SOUTH METROPOLITAN,Primary Schools,PRIMARY SCHOOLS,KIN,Y06,60,70,78,93,81,76,63,56,,,,,,,,,577
4002,APPLECROSS SENIOR HIGH SCHOOL,LINKS ROAD,ARDROSS,WA,6153,LINKS ROAD,ARDROSS,WA,6153,-32.029376,115.83509,G50,08 9314 9393,SOUTH METROPOLITAN,Senior High Schools,SECONDARY SCHOOLS,Y07,Y12,,,,,,,,,,283,312,265,263,292,237,,1652
1107,AQUINAS COLLEGE,58 MT HENRY ROAD,SALTER POINT,WA,6152,58 MT HENRY ROAD,SALTER POINT,WA,6152,-32.02617519,115.8617538,POST,08 9450 0600,SOUTH METROPOLITAN,NON-GOVT SCHOOLS,NON-GOVERNMENT,KIN,Y12,10,10,22,17,30,39,63,65,,160,186,180,185,178,176,,1321
1100,ARANMORE CATHOLIC COLLEGE,41 FRANKLIN STREET,LEEDERVILLE,WA,6007,41 FRANKLIN STREET,LEEDERVILLE,WA,6007,-31.92706854,115.8431695,POST,08 9444 9355,NORTH METROPOLITAN,NON-GOVT SCHOOLS,NON-GOVERNMENT,Y07,Y12,,,,,,,,,,85,101,107,119,124,123,60,719
1241,ARANMORE CATHOLIC PRIMARY SCHOOL,20 BRENTHAM STREET,LEEDERVILLE,WA,6007,20 BRENTHAM STREET,LEEDERVILLE,WA,6007,-31.92790363,115.83923406,POST,08 9444 9366,NORTH METROPOLITAN,NON-GOVT SCHOOLS,NON-GOVERNMENT,KIN,Y06,50,48,52,46,49,62,46,50,,,,,,,,,403
5792,ARBOR GROVE PRIMARY SCHOOL,BROOKMOUNT DRIVE,ELLENBROOK,WA,6069,BROOKMOUNT DRIVE,ELLENBROOK,WA,6069,-31.77105084,115.962637,C193,08 6497 4800,NORTH METROPOLITAN,Primary Schools,PRIMARY SCHOOLS,KIN,Y06,79,96,95,79,100,91,96,97,,,,,,,,,733
5012,ARDROSS PRIMARY SCHOOL,46 LINKS ROAD,ARDROSS,WA,6153,46 LINKS ROAD,ARDROSS,WA,6153,-32.0274405,115.8346577,G40,08 9364 2771,SOUTH METROPOLITAN,Primary Schools,PRIMARY SCHOOLS,KIN,Y06,40,37,41,59,46,56,53,67,,,,,,,,,399
6050,ARMADALE EDUCATION SUPPORT CENTRE,169 SOUTH WESTERN HIGHWAY,ARMADALE,WA,6112,PO BOX 189,ARMADALE,WA,6992,-32.16152603,116.01435232,POST,08 9497 6435,SOUTH METROPOLITAN,Education Support Centres,EDUCATION SUPPORT,Y07,Y12,,,,,,,,,,9,9,11,12,14,10,,65
5014,ARMADALE PRIMARY SCHOOL,1 CARRADINE ROAD,ARMADALE,WA,6112,1 CARRADINE ROAD,ARMADALE,WA,6112,-32.14823967,116.0264848,F200,08 9391 4500,SOUTH METROPOLITAN,Primary Schools,PRIMARY SCHOOLS,KIN,Y06,51,56,58,58,48,57,57,55,,,,,,,,,440
4003,ARMADALE SENIOR HIGH SCHOOL,169 SOUTH WESTERN HIGHWAY,ARMADALE,WA,6112,PO BOX 189,ARMADALE,WA,6992,-32.16152603,116.01435232,POST,08 9497 6400,SOUTH METROPOLITAN,Senior High Schools,SECONDARY SCHOOLS,Y07,Y12,,,,,,,,,,153,149,149,146,112,48,,757
5676,ASHBURTON DRIVE PRIMARY SCHOOL,6 NULLAGINE WAY,GOSNELLS,WA,6110,6 NULLAGINE WAY,GOSNELLS,WA,6110,-32.0862307,115.98419759,F305,08 9234 6300,SOUTH METROPOLITAN,Primary Schools,PRIMARY SCHOOLS,KIN,Y06,49,62,56,64,63,55,57,48,,,,,,,,,454
5786,ASHDALE PRIMARY SCHOOL,51 ASHDALE BOULEVARD,DARCH,WA,6065,51 ASHDALE BOULEVARD,DARCH,WA,6065,-31.80875751,115.8437538,B119,08 6207 4500,NORTH METROPOLITAN,Primary Schools,PRIMARY SCHOOLS,KIN,Y06,85,104,96,107,117,111,124,109,,,,,,,,,853
4181,ASHDALE SECONDARY COLLEGE,75 WESTPORT PARADE,DARCH,WA,6065,75 WESTPORT PARADE,DARCH,WA,6065,-31.81162275,115.84149519,B121,08 9302 7100,NORTH METROPOLITAN,Senior High Schools,SECONDARY SCHOOLS,Y07,Y12,,,,,,,,,,353,329,279,293,279,222,,1755
5015,ASHFIELD PRIMARY SCHOOL,65 MARGARET STREET,ASHFIELD,WA,6054,65 MARGARET STREET,ASHFIELD,WA,6054,-31.91530992,115.94090176,C340,08 6216 1300,NORTH METROPOLITAN,Primary Schools,PRIMARY SCHOOLS,KIN,Y06,13,15,17,9,19,11,18,14,,,,,,,,,116
5854,ASPIRI PRIMARY SCHOOL,30 SUNRAY AVENUE,PIARA WATERS,WA,6112,30 SUNRAY AVENUE,PIARA WATERS,WA,6112,-32.139232,115.910977,UNKNOWN,08 9397 8300,SOUTH METROPOLITAN,Primary Schools,PRIMARY SCHOOLS,KIN,Y06,153,146,129,96,54,47,43,38,,,,,,,,,706
1287,ASSUMPTION CATHOLIC PRIMARY SCHOOL,22-34 GORDON ROAD,MANDURAH,WA,6210,22-34 GORDON ROAD,MANDURAH,WA,6210,-32.50994328,115.7464321,POST,08 9583 8500,SOUTH METROPOLITAN,NON-GOVT SCHOOLS,NON-GOVERNMENT,KIN,Y06,65,54,53,61,58,57,57,53,,,,,,,,,458
1519,ATLANTIS BEACH BAPTIST COLLEGE,BREAKWATER DRIVE,TWO ROCKS,WA,6037,BREAKWATER DRIVE,TWO ROCKS,WA,6037,-31.473535,115.644623,POST,08 9544 3000,NORTH METROPOLITAN,NON-GOVT SCHOOLS,NON-GOVERNMENT,KIN,Y10,13,10,9,10,16,16,23,13,,20,11,12,11,,,,164
5016,ATTADALE PRIMARY SCHOOL,WICHMANN ROAD,ATTADALE,WA,6156,WICHMANN ROAD,ATTADALE,WA,6156,-32.02544682,115.8018145,G70,08 6274 1700,SOUTH METROPOLITAN,Primary Schools,PRIMARY SCHOOLS,KIN,Y06,40,49,49,49,53,54,48,48,,,,,,,,,390
4184,ATWELL COLLEGE,201 BRENCHLEY DRIVE,ATWELL,WA,6164,201 BRENCHLEY DRIVE,ATWELL,WA,6164,-32.14395682,115.86414624,H259,08 6174 2200,SOUTH METROPOLITAN,Senior High Schools,SECONDARY SCHOOLS,Y07,Y12,,,,,,,,,,191,304,235,260,242,189,,1421
5765,ATWELL PRIMARY SCHOOL,160 LYDON BOULEVARD,ATWELL,WA,6164,160 LYDON BOULEVARD,ATWELL,WA,6164,-32.13527555,115.86782796,H257,08 6174 2400,SOUTH METROPOLITAN,Primary Schools,PRIMARY SCHOOLS,KIN,Y06,100,97,98,89,91,88,95,115,,,,,,,,,773
5820,AUBIN GROVE PRIMARY SCHOOL,85 CAMDEN BOULEVARD,AUBIN GROVE,WA,6164,85 CAMDEN BOULEVARD,AUBIN GROVE,WA,6164,-32.17306065,115.86235222,H258A,08 6174 6500,SOUTH METROPOLITAN,Primary Schools,PRIMARY SCHOOLS,KIN,Y06,105,145,115,145,141,150,132,135,,,,,,,,,1068
5017,AUGUSTA PRIMARY SCHOOL,32 ALLNUTT TERRACE,AUGUSTA,WA,6290,PO BOX 106,AUGUSTA,WA,6290,-34.31671839,115.1595029,POST,08 9781 5100,SOUTH WEST,Primary Schools,PRIMARY SCHOOLS,KIN,Y06,7,11,17,6,10,8,9,12,,,,,,,,,80
1487,AUSTIN COVE BAPTIST COLLEGE,INLET BOULEVARD,SOUTH YUNDERUP,WA,6208,INLET BOULEVARD,SOUTH YUNDERUP,WA,6208,-32.59324476,115.8065154,POST,08 9537 7177,SOUTH METROPOLITAN,NON-GOVT SCHOOLS,NON-GOVERNMENT,KIN,Y12,40,32,45,42,41,51,51,37,,59,64,52,47,46,43,,650
1491,AUSTRALIAN CHRISTIAN COLLEGE - DARLING DOWNS,10 NINTH ROAD,HILBERT,WA,6112,10 NINTH ROAD,HILBERT,WA,6112,-32.17468068,116.0042944,POST,08 9391 1500,SOUTH METROPOLITAN,NON-GOVT SCHOOLS,NON-GOVERNMENT,KIN,Y06,6,6,8,8,4,4,4,2,,,,,,,,,42
1438,AUSTRALIAN CHRISTIAN COLLEGE - SOUTHLANDS,26 BREWSTER ROAD,ALBANY,WA,6330,LOCKED BAG 5,ALBANY,WA,6330,-34.99550802,117.9227056,POST,08 9892 5100,SOUTH WEST,NON-GOVT SCHOOLS,NON-GOVERNMENT,PPR,Y12,,15,12,21,14,23,28,40,,51,68,86,97,71,34,,560
1441,AUSTRALIAN ISLAMIC COLLEGE - KEWDALE,139 PRESIDENT STREET,KEWDALE,WA,6105,139 PRESIDENT STREET,KEWDALE,WA,6105,-31.97999061,115.9325273,POST,08 9362 5340,SOUTH METROPOLITAN,NON-GOVT SCHOOLS,NON-GOVERNMENT,KIN,Y12,50,60,81,92,105,108,104,93,,205,190,195,155,145,135,,1718
1391,AUSTRALIAN ISLAMIC COLLEGE - NORTH OF THE RIVER,81 CLEVELAND STREET,DIANELLA,WA,6059,81 CLEVELAND STREET,DIANELLA,WA,6059,-31.90293601,115.87444672,POST,08 9375 9770,NORTH METROPOLITAN,NON-GOVT SCHOOLS,NON-GOVERNMENT,KIN,Y10,49,76,82,81,91,85,75,77,,75,38,30,22,,,,781
1331,AUSTRALIAN ISLAMIC COLLEGE - PERTH,17 TONBRIDGE WAY,THORNLIE,WA,6108,17 TONBRIDGE WAY,THORNLIE,WA,6108,-32.05402507,115.96113961,POST,08 9493 2718,SOUTH METROPOLITAN,NON-GOVT SCHOOLS,NON-GOVERNMENT,KIN,Y06,50,60,85,61,68,76,67,54,,,,,,,,,521
5629,AUSTRALIND PRIMARY SCHOOL,BARNES AVENUE,AUSTRALIND,WA,6233,PO BOX A630,AUSTRALIND,WA,6233,-33.28059897,115.7271368,POST,08 9796 3900,SOUTH WEST,Primary Schools,PRIMARY SCHOOLS,KIN,Y06,20,21,17,14,19,20,23,31,,,,,,,,,165
4146,AUSTRALIND SENIOR HIGH SCHOOL,12 BREAK O'DAY DRIVE,AUSTRALIND,WA,6233,12 BREAK O'DAY DRIVE,AUSTRALIND,WA,6233,-33.27665965,115.72843646,POST,08 9797 4400,SOUTH WEST,Senior High Schools,SECONDARY SCHOOLS,Y07,Y12,,,,,,,,,,288,291,267,255,217,153,,1471
5853,AVELEY NORTH PRIMARY SCHOOL,77 STRINESDALE BOULEVARDE,AVELEY,WA,6069,77 STRINESDALE BOULEVARDE,AVELEY,WA,6069,-31.779284,115.993304,UNKNOWN,08 9297 7800,NORTH METROPOLITAN,Primary Schools,PRIMARY SCHOOLS,KIN,Y06,106,100,93,65,44,38,39,21,,,,,,,,,506
5821,AVELEY PRIMARY SCHOOL,8 BOLERO ROAD,AVELEY,WA,6069,8 BOLERO ROAD,AVELEY,WA,6069,-31.79108088,115.9905586,C194,08 6296 5466,NORTH METROPOLITAN,Primary Schools,PRIMARY SCHOOLS,KIN,Y06,80,77,84,85,107,109,82,78,,,,,,,,,702
4209,AVELEY SECONDARY COLLEGE,MAFFINA PARADE,ELLENBROOK,WA,6069,MAFFINA PARADE,ELLENBROOK,WA,6069,-31.767004,115.987559,UNKNOWN,08 6296 1000,NORTH METROPOLITAN,Senior High Schools,SECONDARY SCHOOLS,Y07,Y09,,,,,,,,,,271,279,270,,,,,820
6041,AVONVALE EDUCATION SUPPORT CENTRE,HUTT STREET,NORTHAM,WA,6401,PO BOX 1061,NORTHAM,WA,6401,-31.64551218,116.6613138,POST,08 9621 5250,WHEATBELT,Education Support Centres,EDUCATION SUPPORT,PPR,Y12,,6,,1,3,3,2,3,,3,1,1,1,2,1,,27
5018,AVONVALE PRIMARY SCHOOL,HUTT STREET,NORTHAM,WA,6401,PO BOX 666,NORTHAM,WA,6401,-31.64551218,116.6613138,POST,08 9621 5200,WHEATBELT,Primary Schools,PRIMARY SCHOOLS,KIN,Y06,18,13,17,16,9,16,19,10,,,,,,,,,118
5020,BABAKIN PRIMARY SCHOOL,FARRAR STREET,BABAKIN,WA,6428,PO BOX 288,CORRIGIN,WA,6375,-32.12359155,118.0209226,POST,08 9065 2023,WHEATBELT,Primary Schools,PRIMARY SCHOOLS,KIN,Y06,2,,2,1,1,3,3,2,,,,,,,,,14
5021,BADGINGARRA PRIMARY SCHOOL,MCNAMARA ROAD,BADGINGARRA,WA,6521,C/- POST OFFICE,BADGINGARRA,WA,6521,-30.4024941,115.550545,POST,08 9652 9060,MIDWEST,Primary Schools,PRIMARY SCHOOLS,KIN,Y06,1,2,1,2,2,2,2,4,,,,,,,,,16
5022,BAKERS HILL PRIMARY SCHOOL,33 SAINT GEORGE STREET,BAKERS HILL,WA,6562,33 SAINT GEORGE STREET,BAKERS HILL,WA,6562,-31.75120467,116.4615984,POST,08 9574 1411,WHEATBELT,Primary Schools,PRIMARY SCHOOLS,KIN,Y06,16,22,15,26,27,24,25,10,,,,,,,,,165
5023,BALCATTA PRIMARY SCHOOL,387 MAIN STREET,BALCATTA,WA,6021,387 MAIN STREET,BALCATTA,WA,6021,-31.88093054,115.82727286,POST,08 9253 4900,NORTH METROPOLITAN,Primary Schools,PRIMARY SCHOOLS,KIN,Y06,44,31,29,25,34,30,28,17,,,,,,,,,238
4004,BALCATTA SENIOR HIGH SCHOOL,31 POINCAIRE STREET,BALCATTA,WA,6021,31 POINCAIRE STREET,BALCATTA,WA,6021,-31.87551716,115.81224294,A430,08 9345 8200,NORTH METROPOLITAN,Senior High Schools,SECONDARY SCHOOLS,Y07,Y12,,,,,,,,,,148,110,130,115,94,83,,680
5847,BALDIVIS GARDENS PRIMARY SCHOOL,NADINE PROMENADE,BALDIVIS,WA,6171,NADINE PROMENADE,BALDIVIS,WA,6171,-32.300823,115.810062,POST,08 9523 7000,SOUTH METROPOLITAN,Primary Schools,PRIMARY SCHOOLS,KIN,Y06,72,63,65,67,72,49,39,44,,,,,,,,,471
5024,BALDIVIS PRIMARY SCHOOL,214 FIFTY ROAD,BALDIVIS,WA,6171,214 FIFTY ROAD,BALDIVIS,WA,6171,-32.30718679,115.81747219,H205,08 9524 1150,SOUTH METROPOLITAN,Primary Schools,PRIMARY SCHOOLS,KIN,Y06,78,51,88,78,80,82,84,96,,,,,,,,,637
4190,BALDIVIS SECONDARY COLLEGE,STILLWATER DRIVE,BALDIVIS,WA,6171,PO BOX 4119,BALDIVIS,WA,6171,-32.334099,115.828418,H208,08 9523 3600,SOUTH METROPOLITAN,Senior High Schools,SECONDARY SCHOOLS,Y07,Y12,,,,,,,,,,212,229,356,350,323,211,,1681
5580,BALER PRIMARY SCHOOL,BALER CLOSE,SOUTH HEDLAND,WA,6722,PO BOX 2621,SOUTH HEDLAND,WA,6722,-20.40461541,118.6124558,POST,08 9172 8400,PILBARA,Primary Schools,PRIMARY SCHOOLS,KIN,Y06,56,68,75,67,65,82,58,72,,,,,,,,,543
5025,BALGA PRIMARY SCHOOL,11 FERNHURST CRESCENT,BALGA,WA,6061,11 FERNHURST CRESCENT,BALGA,WA,6061,-31.86059553,115.84480009,B250,08 9253 4500,NORTH METROPOLITAN,Primary Schools,PRIMARY SCHOOLS,KIN,Y06,40,20,23,13,20,20,15,19,,,,,,,,,170
4050,BALGA SENIOR HIGH SCHOOL,2 MARKHAM WAY,BALGA,WA,6061,2 MARKHAM WAY,BALGA,WA,6061,-31.85134146,115.8465042,B210,08 9247 0222,NORTH METROPOLITAN,Senior High Schools,SECONDARY SCHOOLS,Y07,Y12,,,,,,,,,,83,77,106,117,102,88,,573
5027,BALINGUP PRIMARY SCHOOL,CNR BROCKMAN AND STEERE STS,BALINGUP,WA,6253,PO BOX 372,BALINGUP,WA,6253,-33.78633822,115.9822069,POST,08 9764 1093,SOUTH WEST,Primary Schools,PRIMARY SCHOOLS,KIN,Y06,9,9,9,20,6,13,7,3,,,,,,,,,76
4158,BALLAJURA COMMUNITY COLLEGE,ILLAWARRA CRESCENT SOUTH,BALLAJURA,WA,6066,ILLAWARRA CRESCENT SOUTH,BALLAJURA,WA,6066,-31.84474671,115.8934345,B179,08 9262 7777,NORTH METROPOLITAN,Senior High Schools,SECONDARY SCHOOLS,Y07,Y12,,,,,,,,,,214,200,183,213,207,229,,1246
5702,BALLAJURA PRIMARY SCHOOL,ILLAWARRA CRESCENT SOUTH,BALLAJURA,WA,6066,ILLAWARRA CRESCENT SOUTH,BALLAJURA,WA,6066,-31.83593382,115.892303,POST,08 9338 2200,NORTH METROPOLITAN,Primary Schools,PRIMARY SCHOOLS,KIN,Y06,96,80,95,102,100,87,105,87,,,,,,,,,752
5609,BAMBARA PRIMARY SCHOOL,30 GOSSE ROAD,PADBURY,WA,6025,30 GOSSE ROAD,PADBURY,WA,6025,-31.79830122,115.7614207,A200,08 9307 5911,NORTH METROPOLITAN,Primary Schools,PRIMARY SCHOOLS,KIN,Y06,41,32,24,17,20,23,21,19,,,,,,,,,197
5762,BANKSIA GROVE PRIMARY SCHOOL,14 VIRIDIAN DRIVE,BANKSIA GROVE,WA,6031,14 VIRIDIAN DRIVE,BANKSIA GROVE,WA,6031,-31.70254405,115.80896211,POST,08 9233 6333    ,NORTH METROPOLITAN,Primary Schools,PRIMARY SCHOOLS,KIN,Y06,54,66,58,88,75,60,57,71,,,,,,,,,529
1577,BANKSIA MONTESSORI SCHOOL,17 CHATTON STREET,DIANELLA,WA,6059,17 CHATTON STREET,DIANELLA,WA,6059,-31.89277585,115.86928226,POST,08 9275 5997,NORTH METROPOLITAN,NON-GOVT SCHOOLS,NON-GOVERNMENT,KIN,PPR,10,10,,,,,,,,,,,,,,,20
5701,BANKSIA PARK PRIMARY SCHOOL,HICKS STREET,LEEMING,WA,6149,HICKS STREET,LEEMING,WA,6149,-32.07166263,115.8754583,G277,08 9266 6400,SOUTH METROPOLITAN,Primary Schools,PRIMARY SCHOOLS,KIN,Y06,32,33,29,29,35,36,34,40,,,,,,,,,268
5817,BANNISTER CREEK PRIMARY SCHOOL,92 PURLEY CRESCENT,LYNWOOD,WA,6147,92 PURLEY CRESCENT,LYNWOOD,WA,6147,-32.0397245,115.92850215,F430,08 9366 0900,SOUTH METROPOLITAN,Primary Schools,PRIMARY SCHOOLS,KIN,Y06,76,77,67,75,66,82,71,70,,,,,,,,,584
5030,BASSENDEAN PRIMARY SCHOOL,70 WEST ROAD,BASSENDEAN,WA,6054,70 WEST ROAD,BASSENDEAN,WA,6054,-31.90747284,115.9534451,UNKNOWN,08 6216 1400,NORTH METROPOLITAN,Primary Schools,PRIMARY SCHOOLS,KIN,Y06,53,50,38,33,22,46,33,40,,,,,,,,,315
5519,BATEMAN PRIMARY SCHOOL,2 BARTLING CRESCENT,BATEMAN,WA,6150,2 BARTLING CRESCENT,BATEMAN,WA,6150,-32.05066001,115.84534145,G260,08 6258 6900,SOUTH METROPOLITAN,Primary Schools,PRIMARY SCHOOLS,KIN,Y06,38,45,39,42,46,45,42,50,,,,,,,,,347
5830,BAYNTON WEST PRIMARY SCHOOL,MARNIYARRA LOOP,BAYNTON,WA,6714,MARNIYARRA LOOP,BAYNTON,WA,6714,-20.75252283,116.79939,POST,08 9187 6200,PILBARA,Primary Schools,PRIMARY SCHOOLS,KIN,Y06,91,117,105,113,93,112,99,79,,,,,,,,,809
5031,BAYSWATER PRIMARY SCHOOL,MURRAY STREET,BAYSWATER,WA,6053,MURRAY STREET,BAYSWATER,WA,6053,-31.92081606,115.9117733,POST,08 9462  6600,NORTH METROPOLITAN,Primary Schools,PRIMARY SCHOOLS,KIN,Y06,60,58,64,63,47,49,56,33,,,,,,,,,430
5190,BAYULU REMOTE COMMUNITY SCHOOL,GOGO STATION ROAD,VIA FITZROY CROSSING,WA,6765,PO BOX 76,FITZROY CROSSING,WA,6765,-18.28637,125.58345,POST,08 9191 5093,KIMBERLEY,Remote Community Schools,PRIMARY SCHOOLS,KIN,Y06,12,9,10,10,7,8,14,11,,,,,,,,,81
5032,BEACHLANDS PRIMARY SCHOOL,50 WHITFIELD STREET,GERALDTON,WA,6530,PO BOX 7170,GERALDTON PO,WA,6531,-28.78770753,114.6043717,POST,08 9921 1793,MIDWEST,Primary Schools,PRIMARY SCHOOLS,KIN,Y06,17,21,14,21,9,14,17,13,,,,,,,,,126
5033,BEACON PRIMARY SCHOOL,BROADBENT STREET,BEACON,WA,6472,C/- POST OFFICE,BEACON,WA,6472,-30.45065535,117.8688978,POST,08 9686 1022,WHEATBELT,Primary Schools,PRIMARY SCHOOLS,KIN,Y06,6,2,3,2,2,2,2,2,,,,,,,,,21
5034,BEACONSFIELD PRIMARY SCHOOL,5 HALE STREET,BEACONSFIELD,WA,6162,5 HALE STREET,BEACONSFIELD,WA,6162,-32.068989,115.7593864,G160,08 9432 1000,SOUTH METROPOLITAN,Primary Schools,PRIMARY SCHOOLS,KIN,Y06,67,64,64,59,49,47,43,48,,,,,,,,,441
5720,BEAUMARIS PRIMARY SCHOOL,57 BEAUMARIS BOULEVARD,OCEAN REEF,WA,6027,57 BEAUMARIS BOULEVARD,OCEAN REEF,WA,6027,-31.74874488,115.7355529,A256F,08 6206 3100,NORTH METROPOLITAN,Primary Schools,PRIMARY SCHOOLS,KIN,Y06,78,99,111,76,122,87,124,91,,,,,,,,,788
5084,BECKENHAM PRIMARY SCHOOL,386 RAILWAY PARADE,BECKENHAM,WA,6107,386 RAILWAY PARADE,BECKENHAM,WA,6107,-32.02408598,115.95730406,POST,08 9278 3700,SOUTH METROPOLITAN,Primary Schools,PRIMARY SCHOOLS,KIN,Y06,37,55,65,48,61,54,46,53,,,,,,,,,419
1349,BEECHBORO CHRISTIAN SCHOOL,375 MARSHALL ROAD,BEECHBORO,WA,6063,375 MARSHALL ROAD,BEECHBORO,WA,6063,-31.85664957,115.9340083,POST,08 9377 5211,NORTH METROPOLITAN,NON-GOVT SCHOOLS,NON-GOVERNMENT,KIN,Y06,28,45,36,38,37,26,23,15,,,,,,,,,248
5696,BEECHBORO PRIMARY SCHOOL,20 KING ROAD,BEECHBORO,WA,6063,20 KING ROAD,BEECHBORO,WA,6063,-31.86780968,115.93575714,POST,08 9392 5300,NORTH METROPOLITAN,Primary Schools,PRIMARY SCHOOLS,KIN,Y06,40,43,40,38,50,49,37,51,,,,,,,,,348
5756,BEELIAR PRIMARY SCHOOL,86 THE GRANGE,BEELIAR,WA,6164,86 THE GRANGE,BEELIAR,WA,6164,-32.13297396,115.8207228,POST,08 6174 1400,SOUTH METROPOLITAN,Primary Schools,PRIMARY SCHOOLS,KIN,Y06,53,63,52,50,64,47,42,60,,,,,,,,,431
5859,BEENYUP PRIMARY SCHOOL,73 LAWRENCE WAY,BYFORD,WA,6122,73 LAWRENCE WAY,BYFORD,WA,6122,-32.233554,115.992722,UNKNOWN,08 9526 6500,SOUTH METROPOLITAN,Primary Schools,PRIMARY SCHOOLS,KIN,Y06,40,45,11,26,19,7,15,7,,,,,,,,,170
6057,BELDON EDUCATION SUPPORT CENTRE,10 PACIFIC WAY,BELDON,WA,6027,10 PACIFIC WAY,BELDON,WA,6027,-31.7746556,115.7572522,POST,08 9402 3544,NORTH METROPOLITAN,Education Support Centres,EDUCATION SUPPORT,KIN,Y06,7,6,9,2,6,7,7,4,,,,,,,,,48
5674,BELDON PRIMARY SCHOOL,10 PACIFIC WAY,BELDON,WA,6027,10 PACIFIC WAY,BELDON,WA,6027,-31.7746556,115.7572522,POST,08 9401 1144,NORTH METROPOLITAN,Primary Schools,PRIMARY SCHOOLS,KIN,Y06,50,44,50,33,54,31,37,34,,,,,,,,,333
5036,BELMAY PRIMARY SCHOOL,410 SYDENHAM STREET,CLOVERDALE,WA,6105,410 SYDENHAM STREET,CLOVERDALE,WA,6105,-31.9507814,115.94663741,E160,08 6278 5400,SOUTH METROPOLITAN,Primary Schools,PRIMARY SCHOOLS,KIN,Y06,20,29,24,39,25,37,29,30,,,,,,,,,233
4005,BELMONT CITY COLLEGE,106 FISHER STREET,BELMONT,WA,6104,106 FISHER STREET,BELMONT,WA,6104,-31.95889136,115.93443441,E130,08 9479 2200,SOUTH METROPOLITAN,Senior High Schools,SECONDARY SCHOOLS,Y07,Y12,,,,,,,,,,175,158,161,170,155,110,,929
5038,BELMONT PRIMARY SCHOOL,213 GREAT EASTERN HIGHWAY,BELMONT,WA,6104,213 GREAT EASTERN HIGHWAY,BELMONT,WA,6104,-31.94467587,115.9228256,POST,08 6216 1800,SOUTH METROPOLITAN,Primary Schools,PRIMARY SCHOOLS,KIN,Y06,9,23,8,13,14,16,11,11,,,,,,,,,105
4153,BELRIDGE SECONDARY COLLEGE,17 GWENDOLINE DRIVE,BELDON,WA,6027,17 GWENDOLINE DRIVE,BELDON,WA,6027,-31.77038385,115.76317587,A254,08 9408 8000,NORTH METROPOLITAN,Senior High Schools,SECONDARY SCHOOLS,Y07,Y12,,,,,,,,,,208,190,185,177,147,133,,1040
6091,BELRIDGE SECONDARY EDUCATION SUPPORT CENTRE,17 GWENDOLINE DRIVE,BELDON,WA,6027,17 GWENDOLINE DRIVE,BELDON,WA,6027,-31.77038385,115.76317587,POST,08 9408 8050,NORTH METROPOLITAN,Education Support Centres,EDUCATION SUPPORT,Y07,Y12,,,,,,,,,,22,16,27,18,19,18,,120
5039,BENCUBBIN PRIMARY SCHOOL,CNR MURRAY/MONGER STREETS,BENCUBBIN,WA,6477,C/- POST OFFICE,BENCUBBIN,WA,6477,-30.8076984,117.8572615,POST,08 9685 1228,WHEATBELT,Primary Schools,PRIMARY SCHOOLS,KIN,Y06,6,4,5,3,6,3,1,2,,,,,,,,,30
5041,BENTLEY PRIMARY SCHOOL,15 HEDLEY STREET,BENTLEY,WA,6102,15 HEDLEY STREET,BENTLEY,WA,6102,-32.01035815,115.91156416,POST,08 6455 8000,SOUTH METROPOLITAN,Primary Schools,PRIMARY SCHOOLS,KIN,Y06,34,31,24,17,24,18,21,24,,,,,,,,,193
5799,BERTRAM PRIMARY SCHOOL,CHAMPION DRIVE,BERTRAM,WA,6167,CHAMPION DRIVE,BERTRAM,WA,6167,-32.24665386,115.843541,H225,08 6174 1000,SOUTH METROPOLITAN,Primary Schools,PRIMARY SCHOOLS,KIN,Y06,98,100,107,111,115,119,105,98,,,,,,,,,853
1285,BETHEL CHRISTIAN SCHOOL,BETHEL WAY,ALBANY,WA,6330,BETHEL WAY,ALBANY,WA,6330,-35.00481744,117.881185,POST,08 9842 2100,SOUTH WEST,NON-GOVT SCHOOLS,NON-GOVERNMENT,KIN,Y12,31,28,29,38,32,27,30,42,,31,51,24,28,35,20,,446
4060,BEVERLEY DISTRICT HIGH SCHOOL,20 JOHN STREET,BEVERLEY,WA,6304,20 JOHN STREET,BEVERLEY,WA,6304,-32.10031422,116.9276944,POST,08 9646 1165,WHEATBELT,District High Schools,DISTRICT HIGH SCHOOLS,KIN,Y10,14,15,18,15,12,12,12,20,,6,6,9,6,,,,145
1323,BIBLE BAPTIST CHRISTIAN ACADEMY,6-8 CHIDLOW STREET,MOUNT HELENA,WA,6082,6-8 CHIDLOW STREET,MOUNT HELENA,WA,6082,-31.87584448,116.21585466,POST,08 9572 1648,NORTH METROPOLITAN,NON-GOVT SCHOOLS,NON-GOVERNMENT,PPR,Y06,,1,1,,1,5,1,3,,,,,,,,,12
5686,BIBRA LAKE PRIMARY SCHOOL,29 ANNOIS ROAD,BIBRA LAKE,WA,6163,29 ANNOIS ROAD,BIBRA LAKE,WA,6163,-32.09409186,115.83915051,H267,08 6173 7100,SOUTH METROPOLITAN,Primary Schools,PRIMARY SCHOOLS,KIN,Y06,54,48,50,34,40,37,39,45,,,,,,,,,347
5044,BICTON PRIMARY SCHOOL,VIEW TERRACE,BICTON,WA,6157,VIEW TERRACE,BICTON,WA,6157,-32.03272881,115.786548,G80,08 9205 5800,SOUTH METROPOLITAN,Primary Schools,PRIMARY SCHOOLS,KIN,Y06,76,68,55,70,48,58,48,35,,,,,,,,,458
5046,BINDOON PRIMARY SCHOOL,19 LEARNERS WAY,BINDOON,WA,6502,19 LEARNERS WAY,BINDOON,WA,6502,-31.38017209,116.0971002,POST,08 9576 1097,NORTH METROPOLITAN,Primary Schools,PRIMARY SCHOOLS,KIN,Y06,12,19,17,22,17,15,16,16,,,,,,,,,134
5047,BINNU PRIMARY SCHOOL,LAUDER STREET,BINNU,WA,6532,C/- POST OFFICE,BINNU,WA,6532,-28.04197194,114.6755891,POST,08 9936 1017,MIDWEST,Primary Schools,PRIMARY SCHOOLS,KIN,Y06,1,1,5,3,1,4,1,2,,,,,,,,,18
1328,BIRLIRR NGAWIYIWU CATHOLIC SCHOOL,RINGER SOAK (KUNDAT DJARU COMM),VIA HALLS CREEK,WA,6770,RINGER SOAK (KUNDAT DJARU COMM),VIA HALLS CREEK,WA,6770,-18.794047,128.615847,POST,08 9168 8720,KIMBERLEY,NON-GOVT SCHOOLS,NON-GOVERNMENT,KIN,Y06,1,6,1,6,3,3,5,4,,,,,,,,,29
5808,BLETCHLEY PARK PRIMARY SCHOOL,LOT 5003 BALFOUR STREET,SOUTHERN RIVER,WA,6110,LOT 5003 BALFOUR STREET,SOUTHERN RIVER,WA,6110,-32.10259536,115.9462328,F315,08 9234 6400,SOUTH METROPOLITAN,Primary Schools,PRIMARY SCHOOLS,KIN,Y06,99,97,108,116,130,121,129,121,,,,,,,,,921
1580,BLUE GUM MONTESSORI SCHOOL INC,11 HOPE ROAD,BIBRA LAKE,WA,6163,11 HOPE ROAD,BIBRA LAKE,WA,6163,-32.08519543,115.83855304,POST,08 9417 4060,SOUTH METROPOLITAN,NON-GOVT SCHOOLS,NON-GOVERNMENT,KIN,Y06,58,54,51,38,31,30,22,15,,,,,,,,,299
5049,BLUFF POINT PRIMARY SCHOOL,18 MITCHELL STREET,BLUFF POINT,WA,6530,PO BOX 7166,GERALDTON PO,WA,6531,-28.7403527,114.62158342,POST,08 9923 1278,MIDWEST,Primary Schools,PRIMARY SCHOOLS,KIN,Y06,36,25,39,37,35,30,34,34,,,,,,,,,270
4213,BOB HAWKE COLLEGE,200 ROBERTS ROAD,SUBIACO,WA,6008,PO BOX 8150,SUBIACO,WA,6008,-31.944538,115.8323,UNKNOWN,08 9222 5600,NORTH METROPOLITAN,Senior High Schools,SECONDARY SCHOOLS,Y07,Y07,,,,,,,,,,264,,,,,,,264
4061,BODDINGTON DISTRICT HIGH SCHOOL,25 POLLARD STREET,BODDINGTON,WA,6390,25 POLLARD STREET,BODDINGTON,WA,6390,-32.80157748,116.46708797,POST,08 9884 2900,WHEATBELT,District High Schools,DISTRICT HIGH SCHOOLS,KIN,Y10,21,27,24,28,25,17,16,27,,26,15,18,3,,,,247
1593,BOLD PARK COMMUNITY SCHOOL,61-63 POWIS STREET,WEMBLEY,WA,6014,61-63 POWIS STREET,WEMBLEY,WA,6014,-31.92384064,115.82318472,POST,08 9387 5050,NORTH METROPOLITAN,NON-GOVT SCHOOLS,NON-GOVERNMENT,KIN,Y12,42,19,28,15,13,18,15,9,,8,10,6,9,7,5,,204
5052,BOLGART PRIMARY SCHOOL,28 SMITH STREET,BOLGART,WA,6568,28 SMITH STREET,BOLGART,WA,6568,-31.27358225,116.51086056,POST,08 9627 5245,WHEATBELT,Primary Schools,PRIMARY SCHOOLS,KIN,Y06,1,1,4,3,1,5,5,1,,,,,,,,,21
5053,BOORAGOON PRIMARY SCHOOL,10 CLEMENTS ROAD,BOORAGOON,WA,6154,10 CLEMENTS ROAD,BOORAGOON,WA,6154,-32.03553443,115.82645949,POST,08 6274 1800,SOUTH METROPOLITAN,Primary Schools,PRIMARY SCHOOLS,KIN,Y06,56,37,56,53,55,44,66,53,,,,,,,,,420
5054,BORDEN PRIMARY SCHOOL,STONE STREET,BORDEN,WA,6338,STONE STREET,BORDEN,WA,6338,-34.07290497,118.2630312,POST,08 9828 1031,SOUTH WEST,Primary Schools,PRIMARY SCHOOLS,KIN,Y06,4,1,5,5,3,5,3,3,,,,,,,,,29
5055,BOULDER PRIMARY SCHOOL,LANE STREET,BOULDER,WA,6432,LOCKED BAG 1,BOULDER,WA,6432,-30.78003681,121.4875325,POST,08 9092 4100,GOLDFIELDS,Primary Schools,PRIMARY SCHOOLS,KIN,Y06,40,39,38,29,39,36,35,30,,,,,,,,,286
5058,BOYANUP PRIMARY SCHOOL,45 THOMAS STREET,BOYANUP,WA,6237,45 THOMAS STREET,BOYANUP,WA,6237,-33.48596223,115.7308445,POST,08 9731 5111,SOUTH WEST,Primary Schools,PRIMARY SCHOOLS,KIN,Y06,15,22,28,12,15,16,15,16,,,,,,,,,139
5718,BOYARE PRIMARY SCHOOL,9 THREADLEAF WAY,MIRRABOOKA,WA,6061,9 THREADLEAF WAY,MIRRABOOKA,WA,6061,-31.85724948,115.87342065,B188,08 9338 2500,NORTH METROPOLITAN,Primary Schools,PRIMARY SCHOOLS,KIN,Y06,31,46,28,26,40,33,32,46,,,,,,,,,282
4062,BOYUP BROOK DISTRICT HIGH SCHOOL,77 BARRON STREET,BOYUP BROOK,WA,6244,77 BARRON STREET,BOYUP BROOK,WA,6244,-33.83634699,116.3913376,POST,08 9765 0000,SOUTH WEST,District High Schools,DISTRICT HIGH SCHOOLS,KIN,Y10,15,15,9,18,13,11,14,17,,24,18,8,11,,,,173
5638,BRAESIDE PRIMARY SCHOOL,CARINYA GARDENS,KATANNING,WA,6317,CARINYA GARDENS,KATANNING,WA,6317,-33.679,117.56,POST,08 9821 3500,WHEATBELT,Primary Schools,PRIMARY SCHOOLS,KIN,Y06,20,28,25,22,32,31,31,23,,,,,,,,,212
5624,BRAMFIELD PARK PRIMARY SCHOOL,YULE STREET,MADDINGTON,WA,6109,YULE STREET,MADDINGTON,WA,6109,-32.04680274,115.9950359,POST,08 9217 8600,SOUTH METROPOLITAN,Primary Schools,PRIMARY SCHOOLS,KIN,Y06,40,38,43,45,45,33,38,39,,,,,,,,,321
5060,BREMER BAY PRIMARY SCHOOL,GARNETT ROAD,BREMER BAY,WA,6338,GARNETT ROAD,BREMER BAY,WA,6338,-34.393283,119.37476,POST,08 9837 4010,SOUTH WEST,Primary Schools,PRIMARY SCHOOLS,KIN,Y06,3,4,2,6,3,5,2,5,,,,,,,,,30
5061,BRENTWOOD PRIMARY SCHOOL,2 DAWSON ROAD,BRENTWOOD,WA,6153,2 DAWSON ROAD,BRENTWOOD,WA,6153,-32.04149754,115.84717702,G250,08 9364 2709,SOUTH METROPOLITAN,Primary Schools,PRIMARY SCHOOLS,KIN,Y06,34,38,40,49,38,47,49,44,,,,,,,,,339
4007,BRIDGETOWN HIGH SCHOOL,58 STEERE STREET,BRIDGETOWN,WA,6255,LOCKED BAG 1,BRIDGETOWN,WA,6255,-33.95993882,116.14209068,POST,08 9761 0100,SOUTH WEST,High Schools,SECONDARY SCHOOLS,Y07,Y10,,,,,,,,,,50,56,44,43,,,,193
5062,BRIDGETOWN PRIMARY SCHOOL,178 ROE STREET,BRIDGETOWN,WA,6255,178 ROE STREET,BRIDGETOWN,WA,6255,-33.95485467,116.1407977,POST,08 9761 1102,SOUTH WEST,Primary Schools,PRIMARY SCHOOLS,KIN,Y06,25,22,37,29,30,35,35,39,,,,,,,,,252
5586,BROOKMAN PRIMARY SCHOOL,34 BROOKMAN AVENUE,LANGFORD,WA,6147,34 BROOKMAN AVENUE,LANGFORD,WA,6147,-32.03670459,115.93907265,F400,08 9458 5542,SOUTH METROPOLITAN,Primary Schools,PRIMARY SCHOOLS,KIN,Y06,37,35,37,35,40,47,36,41,,,,,,,,,308
4063,BROOKTON DISTRICT HIGH SCHOOL,20 TILLER STREET,BROOKTON,WA,6306,20 TILLER STREET,BROOKTON,WA,6306,-32.37207392,117.00868168,POST,08 9642 5000,WHEATBELT,District High Schools,DISTRICT HIGH SCHOOLS,KIN,Y10,21,16,13,11,13,11,13,18,,5,8,2,3,,,,134
5839,BROOME NORTH PRIMARY SCHOOL,100 TANAMI DRIVE,BROOME,WA,6725,PO BOX 5996,BROOME,WA,6725,-17.9266374,122.2301416,POST,08 9195 3000,KIMBERLEY,Primary Schools,PRIMARY SCHOOLS,KIN,Y06,60,42,48,43,51,26,55,25,,,,,,,,,350
5712,BROOME PRIMARY SCHOOL,WELD STREET,BROOME,WA,6725,PO BOX 1744,BROOME,WA,6725,-17.96120109,122.2379626,POST,08 9194 7500,KIMBERLEY,Primary Schools,PRIMARY SCHOOLS,KIN,Y06,47,51,46,49,51,60,48,56,,,,,,,,,408
4064,BROOME SENIOR HIGH SCHOOL,FREDERICK STREET,BROOME,WA,6725,PO BOX 1316,BROOME,WA,6725,-17.95614273,122.2323264,POST,08 9195 3100,KIMBERLEY,Senior High Schools,SECONDARY SCHOOLS,Y07,Y12,,,,,,,,,,171,181,136,145,126,111,,870
5065,BROOMEHILL PRIMARY SCHOOL,HASSELL STREET,BROOMEHILL,WA,6318,C/- POST OFFICE,BROOMEHILL,WA,6318,-33.84507375,117.6342811,POST,08 9824 1250,WHEATBELT,Primary Schools,PRIMARY SCHOOLS,KIN,Y06,4,5,7,6,5,10,5,6,,,,,,,,,48
4065,BRUCE ROCK DISTRICT HIGH SCHOOL,37 DUNSTALL STREET,BRUCE ROCK,WA,6418,37 DUNSTALL STREET,BRUCE ROCK,WA,6418,-31.87363474,118.14766266,POST,08 9061 1237,WHEATBELT,District High Schools,DISTRICT HIGH SCHOOLS,KIN,Y10,10,6,12,13,10,12,10,18,,14,6,4,4,,,,119
5067,BRUNSWICK JUNCTION PRIMARY SCHOOL,6 VINCENT STREET,BRUNSWICK JUNCTION,WA,6224,PO BOX 201,BRUNSWICK JUNCTION,WA,6224,-33.2517339,115.8341389,POST,08 9788 9100,SOUTH WEST,Primary Schools,PRIMARY SCHOOLS,KIN,Y06,14,6,10,8,6,8,7,9,,,,,,,,,68
5574,BULL CREEK PRIMARY SCHOOL,32 HARDY STREET,BULL CREEK,WA,6149,32 HARDY STREET,BULL CREEK,WA,6149,-32.06013661,115.8610064,POST,08 6216 4400,SOUTH METROPOLITAN,Primary Schools,PRIMARY SCHOOLS,KIN,Y06,39,33,51,48,57,65,70,37,,,,,,,,,400
4066,BULLSBROOK COLLEGE,CHITTERING ROAD,BULLSBROOK,WA,6084,CHITTERING ROAD,BULLSBROOK,WA,6084,-31.66171848,116.033179,POST,08 9501 7600,NORTH METROPOLITAN,K-12 SCHOOLS,K-12 SCHOOLS,KIN,Y12,39,56,53,77,67,65,88,70,,76,88,71,75,86,55,,966
8039,BULLSBROOK COMMUNITY KINDERGARTEN,25 CAPORN STREET,EAST BULLSBROOK,WA,6084,PO BOX 525,BULLSBROOK,WA,6084,-31.66245045,116.0303767,POST,08 9571 1392,NORTH METROPOLITAN,Community Kindergartens,COMMUNITY KINDERGARTENS,KIN,KIN,39,,,,,,,,,,,,,,,,39
1524,BUNBURY BAPTIST COLLEGE,133 NORTON PROMENADE,DALYELLUP,WA,6230,133 NORTON PROMENADE,DALYELLUP,WA,6230,-33.400403,115.627001,UNKNOWN,08 9790 0000,SOUTH WEST,NON-GOVT SCHOOLS,NON-GOVERNMENT,KIN,Y08,53,36,30,35,41,40,29,31,,74,54,,,,,,423
1222,BUNBURY CATHEDRAL GRAMMAR SCHOOL,5 ALLEN ROAD,GELORUP,WA,6230,5 ALLEN ROAD,GELORUP,WA,6230,-33.404668,115.63864,POST,08 9722 6000,SOUTH WEST,NON-GOVT SCHOOLS,NON-GOVERNMENT,KIN,Y12,25,12,28,21,22,35,27,37,,59,77,71,78,80,75,,647
1029,BUNBURY CATHOLIC COLLEGE,LOT 4 RODSTED STREET,BUNBURY,WA,6230,LOT 4 RODSTED STREET,BUNBURY,WA,6230,-33.34342203,115.6614239,POST,08 9721 0000,SOUTH WEST,NON-GOVT SCHOOLS,NON-GOVERNMENT,Y07,Y12,,,,,,,,,,165,167,157,154,98,96,,837
5070,BUNBURY PRIMARY SCHOOL,2-18 LOVEGROVE AVENUE,BUNBURY,WA,6230,PO BOX 1908,BUNBURY,WA,6231,-33.33305655,115.6381042,POST,08 9721 2660,SOUTH WEST,Primary Schools,PRIMARY SCHOOLS,KIN,Y06,44,49,56,59,55,63,55,56,,,,,,,,,437
1521,BUNBURY REGIONAL COMMUNITY COLLEGE,"SOUTH REGIONAL TAFE, ROBERTSON ROAD",BUNBURY,WA,6230,"SOUTH REGIONAL TAFE, ROBERTSON ROAD",BUNBURY,WA,6230,-33.365301,115.656897,UNKNOWN,0459 915 803 ,SOUTH WEST,NON-GOVT SCHOOLS,NON-GOVERNMENT,Y10,Y12,,,,,,,,,,,,,53,51,26,,130
4008,BUNBURY SENIOR HIGH SCHOOL,10-44 HAIG CRESCENT,BUNBURY,WA,6230,10-44 HAIG CRESCENT,BUNBURY,WA,6230,-33.32746917,115.6326077,POST,08 9781 2500,SOUTH WEST,Senior High Schools,SECONDARY SCHOOLS,Y07,Y12,,,,,,,,,,183,178,203,170,144,120,,998
5508,BUNGAREE PRIMARY SCHOOL,9 CENTAURUS STREET,ROCKINGHAM,WA,6168,9 CENTAURUS STREET,ROCKINGHAM,WA,6168,-32.29110842,115.73782372,H130,08 9553 8400,SOUTH METROPOLITAN,Primary Schools,PRIMARY SCHOOLS,KIN,Y06,35,37,29,31,34,36,39,21,,,,,,,,,262
6031,BURBRIDGE SCHOOL,46 BURBRIDGE AVENUE,KOONDOOLA,WA,6064,46 BURBRIDGE AVENUE,KOONDOOLA,WA,6064,-31.83872675,115.86197527,POST,08 9342 1633,NORTH METROPOLITAN,Education Support Schools,EDUCATION SUPPORT,KIN,Y12,4,3,6,2,,1,1,7,,4,6,8,8,3,6,,59
5591,BURRENDAH PRIMARY SCHOOL,CASTLEREAGH CLOSE,WILLETTON,WA,6155,CASTLEREAGH CLOSE,WILLETTON,WA,6155,-32.05988334,115.8805782,POST,08 9266 6200,SOUTH METROPOLITAN,Primary Schools,PRIMARY SCHOOLS,KIN,Y06,39,53,88,80,92,115,92,97,,,,,,,,,656
5715,BURRINGURRAH REMOTE COMMUNITY SCHOOL,BURRINGURRAH COMMUNITY,MOUNT JAMES,WA,6642,MOUNT JAMES LOCKED BAG,MEEKATHARRA,WA,6642,-24.651178,116.932686,POST,08 9943 0622,MIDWEST,Remote Community Schools,PRIMARY SCHOOLS,PPR,Y12,,1,1,5,1,4,3,1,,2,1,2,2,1,1,,25
5076,BUSSELTON PRIMARY SCHOOL,AVOCET BOULEVARD,BUSSELTON,WA,6280,AVOCET BOULEVARD,BUSSELTON,WA,6280,-33.63955416,115.3763212,POST,08 9751 6400,SOUTH WEST,Primary Schools,PRIMARY SCHOOLS,KIN,Y06,36,30,34,39,32,28,40,39,,,,,,,,,278
4009,BUSSELTON SENIOR HIGH SCHOOL,136-156 BUSSELL HIGHWAY,BUSSELTON,WA,6280,136-156 BUSSELL HIGHWAY,BUSSELTON,WA,6280,-33.6575772,115.3250971,POST,08 9751 8900,SOUTH WEST,Senior High Schools,SECONDARY SCHOOLS,Y07,Y12,,,,,,,,,,129,143,119,138,99,93,,721
4191,BUTLER COLLEGE,15 MCCORMACK BOULEVARD,BUTLER,WA,6036,PO BOX 317,QUINNS ROCKS,WA,6030,-31.65166367,115.70870076,A275,08 9561 4200,NORTH METROPOLITAN,Senior High Schools,SECONDARY SCHOOLS,Y07,Y12,,,,,,,,,,229,334,334,327,246,194,,1664
5783,BUTLER PRIMARY SCHOOL,30 TOLLESBURY AVENUE,BUTLER,WA,6036,PO BOX 339,QUINNS ROCKS,WA,6030,-31.6461099,115.70273635,A273A,08 9561 7700,NORTH METROPOLITAN,Primary Schools,PRIMARY SCHOOLS,KIN,Y06,73,76,73,78,81,76,89,88,,,,,,,,,634
8313,BYFORD COMMUNITY KINDERGARTEN,49 PARK ROAD,BYFORD,WA,6122,49 PARK ROAD,BYFORD,WA,6122,-32.21674443,116.0124505,POST,08 9525 1125,SOUTH METROPOLITAN,Community Kindergartens,COMMUNITY KINDERGARTENS,KIN,KIN,15,,,,,,,,,,,,,,,,15
1435,BYFORD JOHN CALVIN SCHOOL,30 SOLDIERS ROAD,BYFORD,WA,6122,30 SOLDIERS ROAD,BYFORD,WA,6122,-32.22411516,116.00571462,POST,08 9525 0261,SOUTH METROPOLITAN,NON-GOVT SCHOOLS,NON-GOVERNMENT,KIN,Y06,27,26,24,38,25,20,21,27,,,,,,,,,208
5078,BYFORD PRIMARY SCHOOL,36 CLIFTON STREET,BYFORD,WA,6122,36 CLIFTON STREET,BYFORD,WA,6122,-32.21943768,116.01219529,POST,08 9526 6300,SOUTH METROPOLITAN,Primary Schools,PRIMARY SCHOOLS,KIN,Y06,40,37,49,44,46,41,39,53,,,,,,,,,349
4193,BYFORD SECONDARY COLLEGE,57 ABERNETHY ROAD,BYFORD,WA,6122,57 ABERNETHY ROAD,BYFORD,WA,6122,-32.22343162,116.00187931,POST,08 9550 6100,SOUTH METROPOLITAN,Senior High Schools,SECONDARY SCHOOLS,Y07,Y12,,,,,,,,,,297,320,250,219,239,165,,1490
5705,CABLE BEACH PRIMARY SCHOOL,DAKAS STREET,BROOME,WA,6725,PO BOX 1453,BROOME,WA,6725,-17.95879062,122.2164767,POST,08 9194 7300,KIMBERLEY,Primary Schools,PRIMARY SCHOOLS,KIN,Y06,35,37,50,49,38,57,41,54,,,,,,,,,361
5079,CADOUX PRIMARY SCHOOL,3821 CADOUX-KOORDA ROAD,CADOUX,WA,6466,PO BOX 29,CADOUX,WA,6466,-30.77070399,117.1366031,POST,08 9673 1056,WHEATBELT,Primary Schools,PRIMARY SCHOOLS,KIN,Y06,1,3,5,1,3,3,1,6,,,,,,,,,23
5800,CALADENIA PRIMARY SCHOOL,89 FRASER ROAD NORTH,CANNING VALE,WA,6155,89 FRASER ROAD NORTH,CANNING VALE,WA,6155,-32.07496451,115.93272895,F333,08 9456 1144,SOUTH METROPOLITAN,Primary Schools,PRIMARY SCHOOLS,KIN,Y06,84,118,133,136,117,105,118,93,,,,,,,,,904
5080,CALINGIRI PRIMARY SCHOOL,18 CAVELL STREET,CALINGIRI,WA,6569,18 CAVELL STREET,CALINGIRI,WA,6569,-31.090094,116.449243,POST,08 9628 7030,WHEATBELT,Primary Schools,PRIMARY SCHOOLS,KIN,Y06,6,10,4,4,2,5,3,3,,,,,,,,,37
5081,CALISTA PRIMARY SCHOOL,1 CHILCOTT STREET,CALISTA,WA,6167,PO BOX 457,KWINANA,WA,6966,-32.24514843,115.8106046,POST,08 9419 2355,SOUTH METROPOLITAN,Primary Schools,PRIMARY SCHOOLS,KIN,Y06,76,58,53,71,56,59,70,66,,,,,,,,,509
5533,CAMBOON PRIMARY SCHOOL,FORDER ROAD,NORANDA,WA,6062,FORDER ROAD,NORANDA,WA,6062,-31.87744461,115.8910542,B360,08 9276 5832,NORTH METROPOLITAN,Primary Schools,PRIMARY SCHOOLS,KIN,Y06,48,45,55,45,50,46,50,44,,,,,,,,,383
5777,CAMPBELL PRIMARY SCHOOL,CAMPBELL ROAD,CANNING VALE,WA,6155,CAMPBELL ROAD,CANNING VALE,WA,6155,-32.08812075,115.9307582,F332,08 9456 8300,SOUTH METROPOLITAN,Primary Schools,PRIMARY SCHOOLS,KIN,Y06,65,67,77,77,71,94,79,83,,,,,,,,,613
4500,CANNING COLLEGE,MARQUIS STREET,BENTLEY,WA,6102,PO BOX 1148,BENTLEY DC,WA,6983,-32.00942925,115.8971202,POST,08 9278 3500,SOUTH METROPOLITAN,Senior Colleges,SECONDARY SCHOOLS,Y10,Y12,,,,,,,,,,,,,5,33,106,83,227
4174,CANNING VALE COLLEGE,26 DUMBARTON ROAD,CANNING VALE,WA,6155,26 DUMBARTON ROAD,CANNING VALE,WA,6155,-32.08291838,115.92278383,F337,08 9334 9000,SOUTH METROPOLITAN,Senior High Schools,SECONDARY SCHOOLS,Y07,Y12,,,,,,,,,,237,198,245,273,294,228,,1475
6089,CANNING VALE EDUCATION SUPPORT CENTRE,THE RAMBLE,CANNING VALE,WA,6155,THE RAMBLE,CANNING VALE,WA,6155,-32.0760558,115.9128115,F336,08 9427 6030,SOUTH METROPOLITAN,Education Support Centres,EDUCATION SUPPORT,KIN,Y06,10,5,3,5,6,5,4,6,,,,,,,,,44
5735,CANNING VALE PRIMARY SCHOOL,THE RAMBLE,CANNING VALE,WA,6155,THE RAMBLE,CANNING VALE,WA,6155,-32.0760558,115.9128115,POST,08 9427 6000,SOUTH METROPOLITAN,Primary Schools,PRIMARY SCHOOLS,KIN,Y06,60,56,64,65,52,63,82,48,,,,,,,,,490
4169,CANNINGTON COMMUNITY COLLEGE,147 WHARF STREET,CANNINGTON,WA,6107,147 WHARF STREET,CANNINGTON,WA,6107,-32.013947,115.93708138,F80,08 9351 2400,SOUTH METROPOLITAN,District High Schools,DISTRICT HIGH SCHOOLS,KIN,Y10,38,42,33,31,33,37,36,40,,124,113,121,112,,,,760
6083,CANNINGTON COMMUNITY EDUCATION SUPPORT CENTRE,147 WHARF STREET,CANNINGTON,WA,6107,147 WHARF STREET,CANNINGTON,WA,6107,-32.013947,115.93708138,POST,08 9351 2480,SOUTH METROPOLITAN,Education Support Centres,EDUCATION SUPPORT,Y07,Y12,,,,,,,,,,21,20,22,18,9,30,,120
4178,CAPE NATURALISTE COLLEGE,30 YEBBLE DRIVE,VASSE,WA,6280,30 YEBBLE DRIVE,VASSE,WA,6280,-33.67693545,115.24388907,POST,08 9746 3500,SOUTH WEST,Senior High Schools,SECONDARY SCHOOLS,Y07,Y12,,,,,,,,,,199,166,168,121,120,117,,891
5086,CAPEL PRIMARY SCHOOL,21 BARLEE ROAD,CAPEL,WA,6271,21 BARLEE ROAD,CAPEL,WA,6271,-33.55724062,115.56474868,POST,08 9727 2183,SOUTH WEST,Primary Schools,PRIMARY SCHOOLS,KIN,Y06,31,35,35,52,55,40,57,36,,,,,,,,,341
5794,CARALEE COMMUNITY SCHOOL,19 DRURY STREET,WILLAGEE,WA,6156,PO BOX 1031,WILLAGEE,WA,6156,-32.05149344,115.80434605,H335,08 9312 4800,SOUTH METROPOLITAN,Primary Schools,PRIMARY SCHOOLS,KIN,Y06,53,42,39,42,41,52,43,51,,,,,,,,,363
5543,CARCOOLA PRIMARY SCHOOL,WISTERIA CRESCENT,PINJARRA,WA,6208,PO BOX 475,PINJARRA,WA,6208,-32.605769,115.893504,POST,08 9531 1399,SOUTH METROPOLITAN,Primary Schools,PRIMARY SCHOOLS,KIN,Y06,15,21,18,20,17,14,17,20,,,,,,,,,142
1415,CAREY BAPTIST COLLEGE,51 WRIGHT ROAD,HARRISDALE,WA,6112,51 WRIGHT ROAD,HARRISDALE,WA,6112,-32.11159158,115.93554232,POST,08 9394 9111,SOUTH METROPOLITAN,NON-GOVT SCHOOLS,NON-GOVERNMENT,KIN,Y12,76,80,79,77,78,78,77,85,,150,141,134,131,143,116,,1445
1492,CAREY BAPTIST COLLEGE - FORRESTDALE,540 NICHOLSON ROAD,FORRESTDALE,WA,6112,540 NICHOLSON ROAD,FORRESTDALE,WA,6112,-32.16104802,115.9181942,POST,08 6166 2205,SOUTH METROPOLITAN,NON-GOVT SCHOOLS,NON-GOVERNMENT,KIN,Y08,39,33,35,34,30,26,25,19,,35,56,,,,,,332
5088,CAREY PARK PRIMARY SCHOOL,ECCLESTONE STREET,CAREY PARK,WA,6230,ECCLESTONE STREET,CAREY PARK,WA,6230,-33.34906206,115.6505098,POST,08 9796 2900,SOUTH WEST,Primary Schools,PRIMARY SCHOOLS,KIN,Y06,40,24,39,33,36,41,27,44,,,,,,,,,284
5605,CARINE PRIMARY SCHOOL,58 OSMASTON ROAD,CARINE,WA,6020,58 OSMASTON ROAD,CARINE,WA,6020,-31.85137169,115.77250116,A100,08 9447 4266,NORTH METROPOLITAN,Primary Schools,PRIMARY SCHOOLS,KIN,Y06,60,69,66,78,82,84,93,69,,,,,,,,,601
4057,CARINE SENIOR HIGH SCHOOL,51 EVERINGHAM STREET,CARINE,WA,6020,51 EVERINGHAM STREET,CARINE,WA,6020,-31.85299735,115.77584797,A90,08 9243 9100,NORTH METROPOLITAN,Senior High Schools,SECONDARY SCHOOLS,Y07,Y12,,,,,,,,,,446,425,377,291,288,215,,2042
5090,CARLISLE PRIMARY SCHOOL,1 WRIGHT STREET,KEWDALE,WA,6105,1 WRIGHT STREET,KEWDALE,WA,6105,-31.972706,115.921255,POST,08 9470 3800,SOUTH METROPOLITAN,Primary Schools,PRIMARY SCHOOLS,KIN,Y06,40,51,35,43,44,28,34,40,,,,,,,,,315
1037,CARMEL ADVENTIST COLLEGE,210 GLENISLA ROAD,CARMEL,WA,6076,210 GLENISLA ROAD,CARMEL,WA,6076,-32.01473096,116.09403706,POST,08 9293 5333,SOUTH METROPOLITAN,NON-GOVT SCHOOLS,NON-GOVERNMENT,Y07,Y12,,,,,,,,,,36,43,35,32,33,33,,212
1020,CARMEL ADVENTIST COLLEGE PRIMARY,18 FIRST AVENUE,CARMEL,WA,6076,18 FIRST AVENUE,CARMEL,WA,6076,-32.006706,116.091127,POST,08 9291 6399,SOUTH METROPOLITAN,NON-GOVT SCHOOLS,NON-GOVERNMENT,KIN,Y06,17,20,22,21,18,23,22,19,,,,,,,,,162
1231,CARMEL SCHOOL,123 CRESSWELL ROAD,DIANELLA,WA,6059,123 CRESSWELL ROAD,DIANELLA,WA,6059,-31.89910743,115.8620749,POST,08 9276 1644,NORTH METROPOLITAN,NON-GOVT SCHOOLS,NON-GOVERNMENT,KIN,Y12,26,40,32,35,33,26,45,30,,31,35,48,24,41,33,,479
5845,CARNABY RISE PRIMARY SCHOOL,POMODORA AVENUE,LANDSDALE,WA,6065,POMODORA AVENUE,LANDSDALE,WA,6065,-31.81744,115.874989,POST,08 6401 8100,NORTH METROPOLITAN,Primary Schools,PRIMARY SCHOOLS,KIN,Y06,112,109,87,88,78,47,55,42,,,,,,,,,618
4067,CARNAMAH DISTRICT HIGH SCHOOL,48 MCPHERSON STREET,CARNAMAH,WA,6517,48 MCPHERSON STREET,CARNAMAH,WA,6517,-29.68727976,115.893099,POST,08 9951 1266,MIDWEST,District High Schools,DISTRICT HIGH SCHOOLS,KIN,Y12,3,5,5,6,10,5,5,5,,8,8,6,14,1,5,,86
1400,CARNARVON CHRISTIAN SCHOOL (INC),30 BABBAGE ISLAND ROAD,CARNARVON,WA,6701,30 BABBAGE ISLAND ROAD,CARNARVON,WA,6701,-24.87551778,113.6576221,POST,08 9941 4533,MIDWEST,NON-GOVT SCHOOLS,NON-GOVERNMENT,KIN,Y06,16,15,7,13,13,11,11,5,,,,,,,,,91
4941,CARNARVON COMMUNITY COLLEGE,23-27 MARMION STREET,EAST CARNARVON,WA,6701,PO BOX 648,CARNARVON,WA,6701,-24.867098,113.676415,POST,08 9941 6000,MIDWEST,K-12 SCHOOLS,K-12 SCHOOLS,KIN,Y12,16,21,22,30,34,38,36,27,,43,31,32,33,29,23,,415
5926,CARNARVON SCHOOL OF THE AIR,20 CARNARVON ROAD,CARNARVON,WA,6701,PMB 100,CARNARVON,WA,6701,-24.88431096,113.6607577,POST,08 9947 2600,MIDWEST,Distance Education,PRIMARY SCHOOLS,KIN,Y06,4,8,3,1,5,4,6,6,,,,,,,,,37
5782,CARRAMAR PRIMARY SCHOOL,71 HOUGHTON DRIVE,CARRAMAR,WA,6031,71 HOUGHTON DRIVE,CARRAMAR,WA,6031,-31.71147916,115.78572107,A266,08 9405 0600,NORTH METROPOLITAN,Primary Schools,PRIMARY SCHOOLS,KIN,Y06,78,78,80,98,114,94,95,115,,,,,,,,,752
6016,CARSON STREET SCHOOL,19 CARSON STREET,EAST VICTORIA PARK,WA,6101,19 CARSON STREET,EAST VICTORIA PARK,WA,6101,-31.99317499,115.9060766,POST,08 9361 7500,SOUTH METROPOLITAN,Education Support Schools,EDUCATION SUPPORT,KIN,Y07,4,7,6,9,14,7,6,6,,1,,,,,,,60
1436,CASA MIA MONTESSORI COMMUNITY SCHOOL,11 HAMILTON STREET,BASSENDEAN,WA,6054,11 HAMILTON STREET,BASSENDEAN,WA,6054,-31.90308107,115.95191351,POST,08 9279 2209,NORTH METROPOLITAN,NON-GOVT SCHOOLS,NON-GOVERNMENT,KIN,Y06,20,5,7,4,4,3,,3,,,,,,,,,46
5572,CASCADE PRIMARY SCHOOL,LOT 50 ASHA COURT,CASCADE,WA,6450,RMB 9152,ESPERANCE,WA,6450,-33.46836264,121.0723384,POST,08 9079 2061,GOLDFIELDS,Primary Schools,PRIMARY SCHOOLS,KIN,Y06,5,2,5,5,3,,4,3,,,,,,,,,27
6037,CASSIA EDUCATION SUPPORT CENTRE,16 BORONIA CLOSE,SOUTH HEDLAND,WA,6722,PO BOX 2138,SOUTH HEDLAND,WA,6722,-20.40888577,118.60790949,POST,08 9172 8560,PILBARA,Education Support Centres,EDUCATION SUPPORT,KIN,Y05,1,2,5,3,4,1,2,,,,,,,,,,18
5652,CASSIA PRIMARY SCHOOL,16 BORONIA CLOSE,SOUTH HEDLAND,WA,6722,PO BOX 2138,SOUTH HEDLAND,WA,6722,-20.40888577,118.60790949,POST,08 9172 8500,PILBARA,Primary Schools,PRIMARY SCHOOLS,KIN,Y06,80,79,78,94,79,67,63,61,,,,,,,,,601
6030,CASTLEREAGH SCHOOL,CASTLEREAGH CLOSE,WILLETTON,WA,6155,CASTLEREAGH CLOSE,WILLETTON,WA,6155,-32.06093787,115.8818087,POST,08 9266 6100,SOUTH METROPOLITAN,Education Support Schools,EDUCATION SUPPORT,KIN,Y12,3,4,2,,1,5,1,2,,7,5,6,4,7,9,,56
5095,CASTLETOWN PRIMARY SCHOOL,EASTON ROAD,ESPERANCE,WA,6450,EASTON ROAD,ESPERANCE,WA,6450,-33.83182737,121.9084582,POST,08 9076 2800,GOLDFIELDS,Primary Schools,PRIMARY SCHOOLS,KIN,Y06,48,65,65,63,77,54,61,57,,,,,,,,,490
5096,CAVERSHAM PRIMARY SCHOOL,65 COAST ROAD,WEST SWAN,WA,6055,65 COAST ROAD,WEST SWAN,WA,6055,-31.85860491,115.98311265,POST,08 9250 2711,NORTH METROPOLITAN,Primary Schools,PRIMARY SCHOOLS,KIN,Y06,120,78,89,70,67,51,47,45,,,,,,,,,567
5846,CAVERSHAM VALLEY PRIMARY SCHOOL,60 SUMMERVILLE BOULEVARD,CAVERSHAM,WA,6055,60 SUMMERVILLE BOULEVARD,CAVERSHAM,WA,6055,-31.867901,115.968879,UNKNOWN,08 9461 2700,NORTH METROPOLITAN,Primary Schools,PRIMARY SCHOOLS,KIN,Y06,80,62,54,39,47,22,18,18,,,,,,,,,340
4132,CECIL ANDREWS COLLEGE,39 SEVILLE DRIVE,ARMADALE,WA,6112,PO BOX 295,ARMADALE,WA,6992,-32.14118727,115.9918834,F240,08 9234 3400,SOUTH METROPOLITAN,Senior High Schools,SECONDARY SCHOOLS,Y07,Y12,,,,,,,,,,179,149,146,118,104,83,,779
4052,CENTRAL MIDLANDS SENIOR HIGH SCHOOL,RANFURLY STREET,MOORA,WA,6510,RANFURLY STREET,MOORA,WA,6510,-30.64115241,116.0152142,POST,08 9653 9200,WHEATBELT,Senior High Schools,SECONDARY SCHOOLS,Y07,Y12,,,,,,,,,,42,41,30,28,33,22,,196
5558,CERVANTES PRIMARY SCHOOL,26 IBERIA STREET,CERVANTES,WA,6511,PO BOX 42,CERVANTES,WA,6511,-30.4991469,115.06592473,POST,08 9688 5000,MIDWEST,Primary Schools,PRIMARY SCHOOLS,KIN,Y06,5,7,4,8,4,5,5,2,,,,,,,,,40
5567,CHALLIS COMMUNITY PRIMARY SCHOOL,40 BRAEMORE STREET,ARMADALE,WA,6112,40 BRAEMORE STREET,ARMADALE,WA,6112,-32.13924553,116.00064967,F250,08 9391 4100,SOUTH METROPOLITAN,Primary Schools,PRIMARY SCHOOLS,KIN,Y06,113,125,128,131,126,114,93,109,,,,,,,,,939
4996,CHAMPION BAY SENIOR HIGH SCHOOL,HIGHBURY STREET,GERALDTON,WA,6530,PMB 102,GERALDTON,WA,6530,-28.79463546,114.63296,POST,08 9965 8300,MIDWEST,Senior High Schools,SECONDARY SCHOOLS,Y07,Y11,,,,,,,,,,134,130,291,127,100,,,782
5097,CHAPMAN VALLEY PRIMARY SCHOOL,3310 CHAPMAN VALLEY ROAD,NABAWA,WA,6532,PO BOX 28,NABAWA,WA,6532,-28.49970321,114.79151487,POST,08 9920 5032,MIDWEST,Primary Schools,PRIMARY SCHOOLS,KIN,Y06,1,2,4,2,5,3,1,4,,,,,,,,,22
5719,CHARTHOUSE PRIMARY SCHOOL,43 RAND AVENUE,WAIKIKI,WA,6169,43 RAND AVENUE,WAIKIKI,WA,6169,-32.31714699,115.75084274,UNKNOWN,08 9591 7900,SOUTH METROPOLITAN,Primary Schools,PRIMARY SCHOOLS,KIN,Y06,59,58,64,67,60,68,67,71,,,,,,,,,514
5099,CHIDLOW PRIMARY SCHOOL,450 LILYDALE ROAD,CHIDLOW,WA,6556,450 LILYDALE ROAD,CHIDLOW,WA,6556,-31.85729037,116.2689559,POST,08 9572 4132,NORTH METROPOLITAN,Primary Schools,PRIMARY SCHOOLS,KIN,Y06,11,17,15,12,17,16,17,27,,,,,,,,,132
1455,CHILD SIDE SCHOOL,32 ARMSTRONG ROAD,BOYANUP,WA,6237,32 ARMSTRONG ROAD,BOYANUP,WA,6237,-33.48598843,115.74113278,POST,08 9731 5232,SOUTH WEST,NON-GOVT SCHOOLS,NON-GOVERNMENT,KIN,Y10,9,8,8,4,3,5,6,7,,9,4,7,3,,,,73
1085,CHISHOLM CATHOLIC COLLEGE,1104 BEAUFORT STREET,BEDFORD,WA,6052,1104 BEAUFORT STREET,BEDFORD,WA,6052,-31.91151257,115.90056465,POST,08 9208 2500,NORTH METROPOLITAN,NON-GOVT SCHOOLS,NON-GOVERNMENT,Y07,Y12,,,,,,,,,,307,293,295,289,259,237,,1680
1041,CHRIST CHURCH GRAMMAR SCHOOL,QUEENSLEA DRIVE,CLAREMONT,WA,6010,QUEENSLEA DRIVE,CLAREMONT,WA,6010,-31.98546117,115.7769868,POST,08 9442 1555,NORTH METROPOLITAN,NON-GOVT SCHOOLS,NON-GOVERNMENT,KIN,Y12,29,35,39,46,59,88,92,117,,202,201,201,194,194,192,,1689
1104,CHRIST THE KING CATHOLIC SCHOOL,LOMBADINA,LOMBADINA,WA,6725,LOMBADINA,LOMBADINA,WA,6725,-16.516088,122.892963,POST,08 9192 4934,KIMBERLEY,NON-GOVT SCHOOLS,NON-GOVERNMENT,KIN,Y10,3,4,5,6,7,4,5,3,,8,7,5,4,,,,61
1015,CHRIST THE KING SCHOOL,87 YORK STREET,BEACONSFIELD,WA,6162,87 YORK STREET,BEACONSFIELD,WA,6162,-32.072343,115.773117,POST,08 9487 9900,SOUTH METROPOLITAN,NON-GOVT SCHOOLS,NON-GOVERNMENT,KIN,Y06,39,31,38,43,34,51,38,50,,,,,,,,,324
1284,CHRISTIAN ABORIGINAL PARENT-DIRECTED SCHOOL,85-93 LINDSAY STREET,COOLGARDIE,WA,6429,85-93 LINDSAY STREET,COOLGARDIE,WA,6429,-30.95116776,121.1611482,POST,08 9093 8000,GOLDFIELDS,NON-GOVT SCHOOLS,NON-GOVERNMENT,KIN,Y12,1,6,3,3,5,4,5,3,,20,11,9,14,11,7,,102
1347,CHRISTIAN ABORIGINAL PARENT-DIRECTED SCHOOL - KURRAWANG,"KURRAWANG COMTY, 85-93 LINDSAY STREET",KALGOORLIE,WA,6429,"KURRAWANG COMTY, 85-93 LINDSAY STREET",KALGOORLIE,WA,6429,-30.95167149,121.1615629,POST,08 9091 2590,GOLDFIELDS,NON-GOVT SCHOOLS,NON-GOVERNMENT,KIN,Y06,6,8,10,5,10,4,9,3,,,,,,,,,55
1063,CHRISTIAN BROTHERS' COLLEGE,51 ELLEN STREET,FREMANTLE,WA,6160,51 ELLEN STREET,FREMANTLE,WA,6160,-32.05178739,115.7533646,POST,08 9336 2700,SOUTH METROPOLITAN,NON-GOVT SCHOOLS,NON-GOVERNMENT,Y07,Y12,,,,,,,,,,156,165,133,143,118,113,,828
4152,CHRISTMAS ISLAND DISTRICT HIGH SCHOOL,MURRAY ROAD,CHRISTMAS ISLAND,WA,6798,PO BOX 866,CHRISTMAS ISLAND,WA,6798,-10.4352,105.6686,POST,08 9164 8546,NORTH METROPOLITAN,OFFSHORE & MIGRATORY,DISTRICT HIGH SCHOOLS,KIN,Y12,17,23,17,25,25,15,18,18,,20,11,16,12,11,16,,244
1372,CHRYSALIS MONTESSORI SCHOOL,3-5 PARKLAND ROAD,GLENDALOUGH,WA,6016,3-5 PARKLAND ROAD,GLENDALOUGH,WA,6016,-31.91748633,115.8172243,POST,08 9444 6025,NORTH METROPOLITAN,NON-GOVT SCHOOLS,NON-GOVERNMENT,KIN,Y06,30,23,16,19,13,20,6,10,,,,,,,,,137
5102,CHURCHLANDS PRIMARY SCHOOL,CROMARTY ROAD,FLOREAT,WA,6014,CROMARTY ROAD,FLOREAT,WA,6014,-31.92636369,115.794652,D80,08 9253 9450,NORTH METROPOLITAN,Primary Schools,PRIMARY SCHOOLS,KIN,Y06,55,57,60,70,72,52,78,81,,,,,,,,,525
4012,CHURCHLANDS SENIOR HIGH SCHOOL,20 LUCCA STREET,CHURCHLANDS,WA,6018,20 LUCCA STREET,CHURCHLANDS,WA,6018,-31.91728978,115.78999016,D90,08 9441 1700,NORTH METROPOLITAN,Senior High Schools,SECONDARY SCHOOLS,Y07,Y12,,,,,,,,,,421,532,500,485,477,428,,2843
5103,CITY BEACH PRIMARY SCHOOL,30 MARAPANA ROAD,CITY BEACH,WA,6015,30 MARAPANA ROAD,CITY BEACH,WA,6015,-31.93538508,115.76512599,D160,08 9385 9006,NORTH METROPOLITAN,Primary Schools,PRIMARY SCHOOLS,KIN,Y06,36,30,25,27,19,20,22,18,,,,,,,,,197
4160,CLARKSON COMMUNITY HIGH SCHOOL,16 WALYUNGA BOULEVARD,CLARKSON,WA,6030,16 WALYUNGA BOULEVARD,CLARKSON,WA,6030,-31.67744562,115.7267272,A2692,08 6206 5000,NORTH METROPOLITAN,Senior High Schools,SECONDARY SCHOOLS,Y07,Y12,,,,,,,,,,50,65,74,77,32,29,,327
5731,CLARKSON PRIMARY SCHOOL,8 ALDERSEA CIRCLE,CLARKSON,WA,6030,PO BOX 2032,CLARKSON,WA,6030,-31.67754494,115.71830737,A269A,08 6207 5200,NORTH METROPOLITAN,Primary Schools,PRIMARY SCHOOLS,KIN,Y06,39,34,43,40,42,53,33,46,,,,,,,,,330
5793,CLAYTON VIEW PRIMARY SCHOOL,211 CLAYTON STREET,KOONGAMIA,WA,6056,211 CLAYTON STREET,KOONGAMIA,WA,6056,-31.90467468,116.04024506,C290,08 9257 0800,NORTH METROPOLITAN,Primary Schools,PRIMARY SCHOOLS,KIN,Y06,12,28,14,17,24,18,18,19,,,,,,,,,150
5550,CLIFTON HILLS PRIMARY SCHOOL,1 BUTLER PASS,KELMSCOTT,WA,6111,1 BUTLER PASS,KELMSCOTT,WA,6111,-32.1094773,116.0207568,F170,08 9234 7800,SOUTH METROPOLITAN,Primary Schools,PRIMARY SCHOOLS,KIN,Y06,50,60,71,51,54,64,55,48,,,,,,,,,453
5692,CLIFTON PARK PRIMARY SCHOOL,LUCY VICTORIA AVENUE,CLIFTON PARK,WA,6233,LUCY VICTORIA AVENUE,CLIFTON PARK,WA,6233,-33.30905652,115.7119826,POST,08 9796 7300,SOUTH WEST,Primary Schools,PRIMARY SCHOOLS,KIN,Y06,17,18,18,14,21,24,24,21,,,,,,,,,157
1045,CLONTARF ABORIGINAL COLLEGE,295 MANNING ROAD,WATERFORD,WA,6152,295 MANNING ROAD,WATERFORD,WA,6152,-32.01565323,115.89296778,POST,08 9251 0666,SOUTH METROPOLITAN,NON-GOVT SCHOOLS,NON-GOVERNMENT,Y07,Y12,,,,,,,,,,18,17,33,38,35,36,,177
6064,CLOVERDALE EDUCATION SUPPORT CENTRE,180 FISHER STREET,CLOVERDALE,WA,6105,180 FISHER STREET,CLOVERDALE,WA,6105,-31.96091754,115.935021,POST,08 9438 7850,SOUTH METROPOLITAN,Education Support Centres,EDUCATION SUPPORT,KIN,Y06,5,6,10,7,11,5,9,7,,,,,,,,,60
5169,CLOVERDALE PRIMARY SCHOOL,180 FISHER STREET,CLOVERDALE,WA,6105,180 FISHER STREET,CLOVERDALE,WA,6105,-31.96091754,115.935021,E140,08 9438 7800,SOUTH METROPOLITAN,Primary Schools,PRIMARY SCHOOLS,KIN,Y06,50,42,61,41,46,49,47,46,,,,,,,,,382
4199,COASTAL LAKES COLLEGE,135 BADGERUP AVENUE,LAKELANDS,WA,6180,135 BADGERUP AVENUE,LAKELANDS,WA,6180,-32.468193,115.762737,UNKNOWN,08 9583 2800,SOUTH METROPOLITAN,Senior High Schools,SECONDARY SCHOOLS,Y07,Y09,,,,,,,,,,247,221,3,,,,,471
4157,COCOS ISLANDS DISTRICT HIGH SCHOOL,LOT 169 AIRFORCE ROAD,COCOS ISLAND,WA,6799,PO BOX 1095,COCOS ISLAND,WA,6799,-12.188,96.8288,POST,08 9162 6650,NORTH METROPOLITAN,OFFSHORE & MIGRATORY,DISTRICT HIGH SCHOOLS,KIN,Y10,12,13,16,10,10,11,8,8,,9,8,3,6,,,,114
6004,COLLEGE ROW SCHOOL,COLLEGE ROW,BUNBURY,WA,6230,COLLEGE ROW,BUNBURY,WA,6230,-33.35398848,115.6315097,POST,08 9721 3125,SOUTH WEST,Education Support Schools,EDUCATION SUPPORT,KIN,Y12,2,,1,2,,1,2,6,,4,4,3,6,1,8,,40
4014,COLLIE SENIOR HIGH SCHOOL,WITTENOOM STREET,COLLIE,WA,6225,PO BOX 808,COLLIE,WA,6225,-33.36307,116.156535,POST,08 9735 1200,SOUTH WEST,Senior High Schools,SECONDARY SCHOOLS,Y07,Y12,,,,,,,,,,98,105,106,84,71,66,,530
5109,COLLIER PRIMARY SCHOOL,17 HOBBS AVENUE,COMO,WA,6152,17 HOBBS AVENUE,COMO,WA,6152,-31.99132283,115.87320777,F10,08 9474 3626,SOUTH METROPOLITAN,Primary Schools,PRIMARY SCHOOLS,KIN,Y06,37,47,41,30,36,27,38,30,,,,,,,,,286
4176,COMET BAY COLLEGE,2 ALLATOONA AVENUE,SECRET HARBOUR,WA,6173,PO BOX 7134,SECRET HARBOUR,WA,6173,-32.4158052,115.76299964,H162,08 9553 8100,SOUTH METROPOLITAN,Senior High Schools,SECONDARY SCHOOLS,Y07,Y12,,,,,,,,,,309,293,333,300,306,252,,1793
5804,COMET BAY PRIMARY SCHOOL,85 MILTONA DRIVE,SECRET HARBOUR,WA,6173,85 MILTONA DRIVE,SECRET HARBOUR,WA,6173,-32.41132592,115.76943461,H164A,08 9524 9033,SOUTH METROPOLITAN,Primary Schools,PRIMARY SCHOOLS,KIN,Y06,76,85,84,112,103,105,127,112,,,,,,,,,804
1497,COMET CARE SCHOOL,59 KEY LARGO DRIVE,CLARKSON,WA,6030,59 KEY LARGO DRIVE,CLARKSON,WA,6030,-31.69110006,115.71985016,POST,08 9407 9099,NORTH METROPOLITAN,NON-GOVT SCHOOLS,NON-GOVERNMENT,Y10,Y12,,,,,,,,,,,,,41,58,86,,185
1496,COMMUNICARE ACADEMY,11-13 ROYAL STREET,KENWICK,WA,6107,11-13 ROYAL STREET,KENWICK,WA,6107,-32.03746429,115.96769424,POST,08 6350 1872,SOUTH METROPOLITAN,NON-GOVT SCHOOLS,NON-GOVERNMENT,Y07,Y12,,,,,,,,,,6,13,16,19,17,8,1,80
5110,COMO PRIMARY SCHOOL,206 LABOUCHERE ROAD,COMO,WA,6152,206 LABOUCHERE ROAD,COMO,WA,6152,-31.99709826,115.86134474,POST,08 9450 3112,SOUTH METROPOLITAN,Primary Schools,PRIMARY SCHOOLS,KIN,Y06,40,58,55,62,49,46,46,49,,,,,,,,,405
4049,COMO SECONDARY COLLEGE,20 BRUCE STREET,COMO,WA,6152,20 BRUCE STREET,COMO,WA,6152,-32.00366439,115.87115505,F20,08 9365 2000,SOUTH METROPOLITAN,Senior High Schools,SECONDARY SCHOOLS,Y07,Y12,,,,,,,,,,175,163,150,132,130,137,,887
5111,CONDINGUP PRIMARY SCHOOL,SUTCLIFFE STREET,CONDINGUP,WA,6450,PMB 9,ESPERANCE,WA,6450,-33.75467811,122.5268561,POST,08 9076 6013,GOLDFIELDS,Primary Schools,PRIMARY SCHOOLS,KIN,Y06,5,6,7,8,5,5,6,9,,,,,,,,,51
5717,CONNOLLY PRIMARY SCHOOL,FAIRWAY CIRCLE,CONNOLLY,WA,6027,FAIRWAY CIRCLE,CONNOLLY,WA,6027,-31.74715629,115.7572958,UNKNOWN,08 6206 3200,NORTH METROPOLITAN,Primary Schools,PRIMARY SCHOOLS,KIN,Y06,41,49,63,47,42,46,52,49,,,,,,,,,389
4148,COODANUP COLLEGE,WANJEEP STREET,MANDURAH,WA,6210,WANJEEP STREET,MANDURAH,WA,6210,-32.54610231,115.7489824,POST,08 9581 0900,SOUTH METROPOLITAN,Senior High Schools,SECONDARY SCHOOLS,Y07,Y12,,,,,,,,,,159,155,148,142,127,90,,821
5112,COOGEE PRIMARY SCHOOL,22 MAYOR ROAD,COOGEE,WA,6166,22 MAYOR ROAD,COOGEE,WA,6166,-32.12709335,115.77182422,H80,08 6595 4900 ,SOUTH METROPOLITAN,Primary Schools,PRIMARY SCHOOLS,KIN,Y06,67,78,60,58,67,65,71,69,,,,,,,,,535
5071,COOINDA PRIMARY SCHOOL,10 ALLEN STREET,EAST BUNBURY,WA,6230,PO BOX 2454,BUNBURY,WA,6231,-33.33437038,115.65190771,POST,08 9724 3000,SOUTH WEST,Primary Schools,PRIMARY SCHOOLS,KIN,Y06,32,54,39,43,55,44,46,59,,,,,,,,,372
5791,COOLBELLUP COMMUNITY SCHOOL,15 WAVERLEY ROAD,COOLBELLUP,WA,6163,15 WAVERLEY ROAD,COOLBELLUP,WA,6163,-32.08185386,115.80880512,H270,08 9487 9500,SOUTH METROPOLITAN,Primary Schools,PRIMARY SCHOOLS,KIN,Y06,21,20,30,31,32,39,29,27,,,,,,,,,229
6047,COOLBELLUP LEARNING CENTRE,15 WAVERLEY ROAD,COOLBELLUP,WA,6163,15 WAVERLEY ROAD,COOLBELLUP,WA,6163,-32.08185386,115.80880512,POST,08 9487 9502,SOUTH METROPOLITAN,Education Support Centres,EDUCATION SUPPORT,KIN,Y06,2,10,8,3,8,6,2,4,,,,,,,,,43
5116,COOLBINIA PRIMARY SCHOOL,BRADFORD STREET,COOLBINIA,WA,6050,BRADFORD STREET,COOLBINIA,WA,6050,-31.91309496,115.8590308,POST,08 9444 3798,NORTH METROPOLITAN,Primary Schools,PRIMARY SCHOOLS,KIN,Y06,42,40,56,49,52,60,61,60,,,,,,,,,420
5117,COOLGARDIE PRIMARY SCHOOL,46 SHAW STREET,COOLGARDIE,WA,6429,46 SHAW STREET,COOLGARDIE,WA,6429,-30.95018807,121.16714828,POST,08 9068 3100,GOLDFIELDS,Primary Schools,PRIMARY SCHOOLS,KIN,Y06,3,8,2,8,8,6,6,6,,,,,,,,,47
5606,COOLOONGUP PRIMARY SCHOOL,21 WESTERLY WAY,COOLOONGUP,WA,6168,PO BOX 6138,WAIKIKI,WA,6169,-32.29797619,115.75528192,POST,08 9591 6900,SOUTH METROPOLITAN,Primary Schools,PRIMARY SCHOOLS,KIN,Y06,46,44,38,53,47,35,50,36,,,,,,,,,349
5120,COOROW PRIMARY SCHOOL,14 BRISTOL STREET,COOROW,WA,6515,14 BRISTOL STREET,COOROW,WA,6515,-29.87940195,116.0234057,POST,08 9952 1043,MIDWEST,Primary Schools,PRIMARY SCHOOLS,KIN,Y06,4,3,6,3,6,2,6,5,,,,,,,,,35
1329,CORNERSTONE CHRISTIAN COLLEGE LTD,GRACE COURT,BUSSELTON,WA,6280,GRACE COURT,BUSSELTON,WA,6280,-33.67026207,115.3229807,POST,08 9754 1144,SOUTH WEST,NON-GOVT SCHOOLS,NON-GOVERNMENT,KIN,Y12,43,23,31,27,31,29,35,26,,41,28,28,28,26,27,,423
1299,CORPUS CHRISTI COLLEGE,MURDOCH DRIVE,BATEMAN,WA,6150,MURDOCH DRIVE,BATEMAN,WA,6150,-32.05699614,115.8429056,POST,08 6332 2500,SOUTH METROPOLITAN,NON-GOVT SCHOOLS,NON-GOVERNMENT,Y07,Y12,,,,,,,,,,233,187,202,198,231,226,,1277
4068,CORRIGIN DISTRICT HIGH SCHOOL,53 LYNCH STREET,CORRIGIN,WA,6375,53 LYNCH STREET,CORRIGIN,WA,6375,-32.32675596,117.87718466,POST,08 9063 2042,WHEATBELT,District High Schools,DISTRICT HIGH SCHOOLS,KIN,Y10,10,15,11,15,11,9,7,5,,8,8,3,6,,,,108
5123,COTTESLOE PRIMARY SCHOOL,530 STIRLING HIGHWAY,PEPPERMINT GROVE,WA,6011,530 STIRLING HIGHWAY,PEPPERMINT GROVE,WA,6011,-32.002516,115.761337,D290,08 9382 7300,NORTH METROPOLITAN,Primary Schools,PRIMARY SCHOOLS,KIN,Y06,31,38,42,53,31,53,43,33,,,,,,,,,324
1465,COURT GRAMMAR SCHOOL,1 BISHOP ROAD,MUNDIJONG,WA,6123,1 BISHOP ROAD,MUNDIJONG,WA,6123,-32.26965841,115.99128059,POST,08 9526 5000,SOUTH METROPOLITAN,NON-GOVT SCHOOLS,NON-GOVERNMENT,KIN,Y12,73,44,43,39,35,34,45,50,,73,73,64,54,40,33,,700
5125,COWARAMUP PRIMARY SCHOOL,WAVERLEY STREET,COWARAMUP,WA,6284,C/- POST OFFICE,COWARAMUP,WA,6284,-33.851817,115.1071394,POST,08 9756 5400,SOUTH WEST,Primary Schools,PRIMARY SCHOOLS,KIN,Y06,60,47,41,44,42,45,58,36,,,,,,,,,373
5816,CRAIGIE HEIGHTS PRIMARY SCHOOL,47 SPINAWAY STREET,CRAIGIE,WA,6025,47 SPINAWAY STREET,CRAIGIE,WA,6025,-31.79004304,115.76026443,A230,08 6206 2200,NORTH METROPOLITAN,Primary Schools,PRIMARY SCHOOLS,KIN,Y06,53,54,51,47,53,50,50,52,,,,,,,,,410
5126,CRANBROOK PRIMARY SCHOOL,GRENFELL STREET,CRANBROOK,WA,6321,PO BOX 109,CRANBROOK,WA,6321,-34.29276525,117.55080162,POST,08 9826 1028,SOUTH WEST,Primary Schools,PRIMARY SCHOOLS,KIN,Y06,8,7,8,10,9,4,3,7,,,,,,,,,56
6059,CREANEY EDUCATION SUPPORT CENTRE,50 KINGSLEY DRIVE,KINGSLEY,WA,6026,6 CREANEY DRIVE,KINGSLEY,WA,6026,-31.80400875,115.7885222,A303,08 9408 2950,NORTH METROPOLITAN,Education Support Centres,EDUCATION SUPPORT,KIN,Y06,7,9,14,7,4,6,7,4,,,,,,,,,58
5667,CREANEY PRIMARY SCHOOL,6 CREANEY DRIVE,KINGSLEY,WA,6026,6 CREANEY DRIVE,KINGSLEY,WA,6026,-31.80400875,115.78852238,A303,08 9408 2900,NORTH METROPOLITAN,Primary Schools,PRIMARY SCHOOLS,KIN,Y06,41,45,42,44,36,49,50,37,,,,,,,,,344
5127,CUE PRIMARY SCHOOL,SIMPSON STREET,CUE,WA,6640,PO BOX 58,CUE,WA,6640,-27.42017103,117.8970268,POST,08 9963 1010,MIDWEST,Primary Schools,PRIMARY SCHOOLS,KIN,Y06,1,1,1,1,2,1,2,2,,,,,,,,,11
4069,CUNDERDIN DISTRICT HIGH SCHOOL,CUBBINE STREET,CUNDERDIN,WA,6407,CUBBINE STREET,CUNDERDIN,WA,6407,-31.65627,117.243877,POST,08 9635 3300,WHEATBELT,District High Schools,DISTRICT HIGH SCHOOLS,KIN,Y10,10,13,14,15,14,12,15,12,,16,17,18,7,,,,163
5757,CURRAMBINE PRIMARY SCHOOL,28 AMBASSADOR DRIVE,CURRAMBINE,WA,6028,28 AMBASSADOR DRIVE,CURRAMBINE,WA,6028,-31.73364969,115.74910221,A268A,08 6207 6100,NORTH METROPOLITAN,Primary Schools,PRIMARY SCHOOLS,KIN,Y06,91,85,98,89,84,114,110,81,,,,,,,,,752
5257,CURTIN PRIMARY SCHOOL,20 GOSS AVENUE,MANNING,WA,6152,20 GOSS AVENUE,MANNING,WA,6152,-32.00690937,115.87376105,F30,08 9313 1051,SOUTH METROPOLITAN,Primary Schools,PRIMARY SCHOOLS,KIN,Y06,15,18,15,16,18,14,10,12,,,,,,,,,118
4015,CYRIL JACKSON SENIOR CAMPUS,53 REID STREET,BASSENDEAN,WA,6054,PO BOX 108,BASSENDEAN,WA,6934,-31.91290966,115.94246463,POST,08 9413 4700,NORTH METROPOLITAN,Senior Colleges,SECONDARY SCHOOLS,Y11,Y12,,,,,,,,,,,,,,289,164,,453
6048,CYRIL JACKSON SENIOR CAMPUS EDUCATION SUPPORT CENTRE,53 REID STREET,BASSENDEAN,WA,6054,PO BOX 108,BASSENDEAN,WA,6934,-31.91290966,115.94246463,POST,08 9413 4850,NORTH METROPOLITAN,Education Support Centres,EDUCATION SUPPORT,Y10,Y12,,,,,,,,,,,,,5,6,24,,35
1306,DALE CHRISTIAN SCHOOL,150 FORREST ROAD,ARMADALE,WA,6112,150 FORREST ROAD,ARMADALE,WA,6112,-32.15932611,115.99873573,POST,08 9497 1444,SOUTH METROPOLITAN,NON-GOVT SCHOOLS,NON-GOVERNMENT,KIN,Y12,39,48,45,47,42,49,47,44,,52,53,47,45,40,41,,639
5131,DALKEITH PRIMARY SCHOOL,44 CIRCE CIRCLE,DALKEITH,WA,6009,PO BOX 5402,DALKEITH,WA,6009,-31.99644115,115.79787198,POST,08 9287 7100,NORTH METROPOLITAN,Primary Schools,PRIMARY SCHOOLS,KIN,Y06,34,43,41,46,50,47,43,41,,,,,,,,,345
5703,DALMAIN PRIMARY SCHOOL,64 DALMAIN STREET,KINGSLEY,WA,6026,64 DALMAIN STREET,KINGSLEY,WA,6026,-31.81392422,115.7907121,A307,08 6207 2200,NORTH METROPOLITAN,Primary Schools,PRIMARY SCHOOLS,KIN,Y06,39,30,36,32,41,39,32,36,,,,,,,,,285
4070,DALWALLINU DISTRICT HIGH SCHOOL,97 JOHNSTON STREET,DALWALLINU,WA,6609,97 JOHNSTON STREET,DALWALLINU,WA,6609,-30.2704732,116.66108786,POST,08 9661 1204,WHEATBELT,District High Schools,DISTRICT HIGH SCHOOLS,KIN,Y12,16,15,15,26,13,17,20,19,,13,18,13,13,5,5,,208
4183,DALYELLUP COLLEGE,WAKE DRIVE,DALYELLUP,WA,6230,PO BOX 1096,BUNBURY,WA,6231,-33.40385496,115.6257673,POST,08 9795 2000,SOUTH WEST,Senior High Schools,SECONDARY SCHOOLS,Y07,Y12,,,,,,,,,,136,148,161,155,127,73,,800
5779,DALYELLUP PRIMARY SCHOOL,14 HARTOG ROAD,DALYELLUP,WA,6230,PO BOX 679,BUNBURY,WA,6231,-33.39985687,115.6228338,POST,08 9796 5600,SOUTH WEST,Primary Schools,PRIMARY SCHOOLS,KIN,Y06,57,60,65,48,71,73,65,76,,,,,,,,,515
5133,DAMPIER PRIMARY SCHOOL,42 CHURCH ROAD,DAMPIER,WA,6713,42 CHURCH ROAD,DAMPIER,WA,6713,-20.6644723,116.70571695,POST,08 9183 4300,PILBARA,Primary Schools,PRIMARY SCHOOLS,KIN,Y06,26,21,27,22,34,24,20,27,,,,,,,,,201
5135,DANDARAGAN PRIMARY SCHOOL,DANDARAGAN ROAD,DANDARAGAN,WA,6507,PO BOX 91,DANDARAGAN,WA,6507,-30.67304886,115.7019541,POST,08 9651 4017,MIDWEST,Primary Schools,PRIMARY SCHOOLS,KIN,Y06,5,11,6,9,9,5,3,2,,,,,,,,,50
5136,DARDANUP PRIMARY SCHOOL,HAYWARD STREET,DARDANUP,WA,6236,HAYWARD STREET,DARDANUP,WA,6236,-33.40089693,115.7575813,POST,08 9728 1146,SOUTH WEST,Primary Schools,PRIMARY SCHOOLS,KIN,Y06,30,11,22,17,16,14,10,19,,,,,,,,,139
5826,DARKAN PRIMARY SCHOOL,DARKAN SOUTH ROAD,DARKAN,WA,6392,DARKAN SOUTH ROAD,DARKAN,WA,6392,-33.33586626,116.7346573,POST,08 9736 1299,WHEATBELT,Primary Schools,PRIMARY SCHOOLS,KIN,Y06,8,8,10,16,13,12,9,13,,,,,,,,,89
4116,DARLING RANGE SPORTS COLLEGE,117 BERKSHIRE ROAD,FORRESTFIELD,WA,6058,117 BERKSHIRE ROAD,FORRESTFIELD,WA,6058,-31.97566063,116.01085969,E290,08 9453 0100,SOUTH METROPOLITAN,Senior High Schools,SECONDARY SCHOOLS,Y07,Y12,,,,,,,,,,193,166,205,170,135,143,,1012
5138,DARLINGTON PRIMARY SCHOOL,2-14 AMHERST AVENUE,DARLINGTON,WA,6070,2-14 AMHERST AVENUE,DARLINGTON,WA,6070,-31.92015078,116.07754,C270,08 9257 4000,NORTH METROPOLITAN,Primary Schools,PRIMARY SCHOOLS,KIN,Y06,39,51,51,40,51,50,53,54,,,,,,,,,389
5566,DAVALLIA PRIMARY SCHOOL,6 JUNIPER WAY,DUNCRAIG,WA,6023,6 JUNIPER WAY,DUNCRAIG,WA,6023,-31.84104283,115.7874618,A110,08 9447 6633,NORTH METROPOLITAN,Primary Schools,PRIMARY SCHOOLS,KIN,Y06,73,62,68,71,55,71,73,54,,,,,,,,,527
5653,DAWSON PARK PRIMARY SCHOOL,120 BOUGAINVILLEA AVENUE,FORRESTFIELD,WA,6058,120 BOUGAINVILLEA AVENUE,FORRESTFIELD,WA,6058,-31.97788644,115.99998139,POST,08 9453 2499,SOUTH METROPOLITAN,Primary Schools,PRIMARY SCHOOLS,KIN,Y06,60,53,62,55,60,65,73,53,,,,,,,,,481
5691,DAWUL REMOTE COMMUNITY SCHOOL,DOON DOON STATION,KUNUNURRA,WA,6743,PO BOX 1881,KUNUNURRA,WA,6743,-16.306425,128.2465,POST,08 9167 8978,KIMBERLEY,Remote Community Schools,PRIMARY SCHOOLS,KIN,Y06,4,,1,3,2,1,,2,,,,,,,,,13
5414,DEANMORE PRIMARY SCHOOL,21 DEANMORE ROAD,KARRINYUP,WA,6018,21 DEANMORE ROAD,KARRINYUP,WA,6018,-31.88323747,115.76660762,A60,08 9341 1610,NORTH METROPOLITAN,Primary Schools,PRIMARY SCHOOLS,KIN,Y06,56,69,66,62,56,71,63,56,,,,,,,,,499
5767,DENMARK PRIMARY SCHOOL,MITCHELL STREET,DENMARK,WA,6333,MITCHELL STREET,DENMARK,WA,6333,-34.96364766,117.3534296,POST,08 9848 4700,SOUTH WEST,Primary Schools,PRIMARY SCHOOLS,KIN,Y06,57,46,36,68,47,68,51,64,,,,,,,,,437
4072,DENMARK SENIOR HIGH SCHOOL,956 SOUTH COAST HIGHWAY,DENMARK,WA,6333,956 SOUTH COAST HIGHWAY,DENMARK,WA,6333,-34.95741408,117.3645842,POST,08 9848 0100,SOUTH WEST,Senior High Schools,SECONDARY SCHOOLS,Y07,Y12,,,,,,,,,,75,71,90,84,60,51,,431
4073,DERBY DISTRICT HIGH SCHOOL,10 ANDERSON STREET,DERBY,WA,6728,PMB 958,DERBY,WA,6728,-17.30943881,123.63373904,POST,08 9193 3000,KIMBERLEY,District High Schools,DISTRICT HIGH SCHOOLS,KIN,Y12,33,41,50,63,53,58,52,49,,50,59,49,35,28,17,,637
5144,DIANELLA HEIGHTS PRIMARY SCHOOL,9 BEAMAN STREET,DIANELLA,WA,6059,9 BEAMAN STREET,DIANELLA,WA,6059,-31.88273396,115.8661514,B320,08 9375 3622,NORTH METROPOLITAN,Primary Schools,PRIMARY SCHOOLS,KIN,Y06,40,74,53,49,61,65,64,56,,,,,,,,,462
5309,DIANELLA PRIMARY COLLEGE,LAYTHORNE STREET,DIANELLA,WA,6059,LAYTHORNE STREET,DIANELLA,WA,6059,-31.87939428,115.8548645,B290,08 9263 5100,NORTH METROPOLITAN,Primary Schools,PRIMARY SCHOOLS,KIN,Y06,40,35,51,51,51,63,46,43,,,,,,,,,380
4036,DIANELLA SECONDARY COLLEGE,180 NOLLAMARA AVENUE,DIANELLA,WA,6059,180 NOLLAMARA AVENUE,DIANELLA,WA,6059,-31.87818209,115.85490274,B280,08 9345 9200,NORTH METROPOLITAN,Senior High Schools,SECONDARY SCHOOLS,Y07,Y12,,,,,,,,,,110,105,104,74,101,71,,565
6068,DIANELLA SECONDARY COLLEGE EDUCATION SUPPORT CENTRE,9 LAYTHORNE STREET,DIANELLA,WA,6059,9 LAYTHORNE STREET,DIANELLA,WA,6059,-31.879454,115.853534,POST,08 9345 9272,NORTH METROPOLITAN,Education Support Centres,EDUCATION SUPPORT,Y07,Y12,,,,,,,,,,13,14,18,25,22,22,,114
1405,DIVINE MERCY COLLEGE,326 YANGEBUP ROAD,YANGEBUP,WA,6164,326 YANGEBUP ROAD,YANGEBUP,WA,6164,-32.12468637,115.82516968,POST,08 9417 3267,SOUTH METROPOLITAN,NON-GOVT SCHOOLS,NON-GOVERNMENT,KIN,Y12,17,14,14,23,18,22,21,26,,37,42,48,39,38,48,,407
5760,DJIDI DJIDI ABORIGINAL SCHOOL,ERICA ENTRANCE,BUNBURY,WA,6230,ERICA ENTRANCE,BUNBURY,WA,6230,-33.3480231,115.6823564,POST,08 9724 9444,SOUTH WEST,Primary Schools,PRIMARY SCHOOLS,KIN,Y06,15,12,18,11,14,16,18,7,,,,,,,,,111
5098,DJUGERARI REMOTE COMMUNITY SCHOOL,FOURTH STREET,DJUGERARI COMMUNITY,WA,6765,PO BOX 112,FITZROY CROSSING,WA,6765,-18.988706,125.510396,POST,08 9191 7145,KIMBERLEY,Remote Community Schools,PRIMARY SCHOOLS,KIN,Y06,2,3,3,,1,3,1,1,,,,,,,,,14
4131,DONGARA DISTRICT HIGH SCHOOL,13 CAVE WAY,DONGARA,WA,6525,13 CAVE WAY,DONGARA,WA,6525,-29.24926582,114.9285663,POST,08 9927 0100,MIDWEST,District High Schools,DISTRICT HIGH SCHOOLS,KIN,Y12,36,29,30,28,47,41,40,49,,30,23,25,25,12,10,,425
4074,DONNYBROOK DISTRICT HIGH SCHOOL,10 BENTLEY STREET,DONNYBROOK,WA,6239,10 BENTLEY STREET,DONNYBROOK,WA,6239,-33.57479874,115.82099253,POST,08 9732 4400,SOUTH WEST,District High Schools,DISTRICT HIGH SCHOOLS,KIN,Y10,39,28,36,34,46,31,37,29,,31,37,39,30,,,,417
5150,DOUBLEVIEW PRIMARY SCHOOL,273 FLAMBOROUGH STREET,DOUBLEVIEW,WA,6018,273 FLAMBOROUGH STREET,DOUBLEVIEW,WA,6018,-31.89845085,115.77766165,D110,08 9392 7400,NORTH METROPOLITAN,Primary Schools,PRIMARY SCHOOLS,KIN,Y06,61,65,56,62,60,56,51,50,,,,,,,,,461
4075,DOWERIN DISTRICT HIGH SCHOOL,35 MEMORIAL AVENUE,DOWERIN,WA,6461,35 MEMORIAL AVENUE,DOWERIN,WA,6461,-31.19174,117.037882,POST,08 9631 1030,WHEATBELT,District High Schools,DISTRICT HIGH SCHOOLS,KIN,Y10,15,11,13,13,11,6,14,8,,12,14,12,5,,,,134
5694,DRYANDRA PRIMARY SCHOOL,45 DRYANDRA DRIVE,MIRRABOOKA,WA,6061,45 DRYANDRA DRIVE,MIRRABOOKA,WA,6061,-31.85529627,115.86235222,POST,08 9345 6400,NORTH METROPOLITAN,Primary Schools,PRIMARY SCHOOLS,KIN,Y06,20,24,37,36,28,32,26,27,,,,,,,,,230
5587,DUDLEY PARK PRIMARY SCHOOL,GILLARK STREET,MANDURAH,WA,6210,PO BOX 915,MANDURAH,WA,6210,-32.54121027,115.735351,POST,08 9535 9533,SOUTH METROPOLITAN,Primary Schools,PRIMARY SCHOOLS,KIN,Y06,47,58,51,57,63,58,61,73,,,,,,,,,468
5773,DUMBLEYUNG PRIMARY SCHOOL,49 TAYLOR STREET,DUMBLEYUNG,WA,6350,49 TAYLOR STREET,DUMBLEYUNG,WA,6350,-33.31275734,117.73867522,POST,08 9863 4068,WHEATBELT,Primary Schools,PRIMARY SCHOOLS,KIN,Y06,4,4,5,3,6,1,4,2,,,,,,,,,29
5575,DUNCRAIG PRIMARY SCHOOL,21 ROCHE ROAD,DUNCRAIG,WA,6023,21 ROCHE ROAD,DUNCRAIG,WA,6023,-31.83197629,115.77075437,A150,08 6224 2150,NORTH METROPOLITAN,Primary Schools,PRIMARY SCHOOLS,KIN,Y06,44,51,45,52,41,60,67,53,,,,,,,,,413
4129,DUNCRAIG SENIOR HIGH SCHOOL,22 SULLIVAN ROAD,DUNCRAIG,WA,6023,22 SULLIVAN ROAD,DUNCRAIG,WA,6023,-31.82190527,115.767131,A160,08 6241 5000,NORTH METROPOLITAN,Senior High Schools,SECONDARY SCHOOLS,Y07,Y12,,,,,,,,,,330,318,268,300,231,193,,1640
5155,DUNSBOROUGH PRIMARY SCHOOL,40 TURNER STREET,DUNSBOROUGH,WA,6281,TURNER STREET,DUNSBOROUGH,WA,6281,-33.60060793,115.09979122,POST,08 9781 3777,SOUTH WEST,Primary Schools,PRIMARY SCHOOLS,KIN,Y06,79,72,107,91,96,98,117,87,,,,,,,,,747
6029,DURHAM ROAD SCHOOL,37 DURHAM ROAD,BAYSWATER,WA,6053,37 DURHAM ROAD,BAYSWATER,WA,6053,-31.91510281,115.91859797,C350,08 9238 0900,NORTH METROPOLITAN,Education Support Schools,EDUCATION SUPPORT,KIN,Y12,11,15,26,14,14,12,15,15,,16,16,9,11,12,14,,200
5157,DWELLINGUP PRIMARY SCHOOL,10 NEWTON STREET,DWELLINGUP,WA,6213,10 NEWTON STREET,DWELLINGUP,WA,6213,-32.71529394,116.0641876,POST,08 9538 5100,SOUTH METROPOLITAN,Primary Schools,PRIMARY SCHOOLS,KIN,Y06,9,6,3,9,7,7,8,8,,,,,,,,,57
5626,EAST BEECHBORO PRIMARY SCHOOL,BROCKMILL AVENUE,BEECHBORO,WA,6063,BROCKMILL AVENUE,BEECHBORO,WA,6063,-31.87236969,115.9508182,C180,08 6216 1900,NORTH METROPOLITAN,Primary Schools,PRIMARY SCHOOLS,KIN,Y06,62,53,58,56,64,51,60,45,,,,,,,,,449
5801,EAST BUTLER PRIMARY SCHOOL,7 AMERSHAM CRESCENT,BUTLER,WA,6036,7 AMERSHAM CRESCENT,BUTLER,WA,6036,-31.6437585,115.71175964,A274,08 9562 9600,NORTH METROPOLITAN,Primary Schools,PRIMARY SCHOOLS,KIN,Y06,49,58,61,70,63,81,62,86,,,,,,,,,530
5177,EAST FREMANTLE PRIMARY SCHOOL,8 FORREST STREET,FREMANTLE,WA,6160,8 FORREST STREET,FREMANTLE,WA,6160,-32.04789275,115.75914837,POST,08 9432 1200,SOUTH METROPOLITAN,Primary Schools,PRIMARY SCHOOLS,KIN,Y06,40,61,42,64,52,58,52,63,,,,,,,,,432
5627,EAST HAMERSLEY PRIMARY SCHOOL,20 DOON WAY,HAMERSLEY,WA,6022,20 DOON WAY,HAMERSLEY,WA,6022,-31.84763444,115.81860514,POST,08 9462 9550,NORTH METROPOLITAN,Primary Schools,PRIMARY SCHOOLS,KIN,Y06,22,39,34,31,24,27,14,12,,,,,,,,,203
5201,EAST HAMILTON HILL PRIMARY SCHOOL,27 BRADBURY ROAD,HAMILTON HILL,WA,6163,27 BRADBURY ROAD,HAMILTON HILL,WA,6163,-32.07753718,115.7892828,POST,08 9487 9300,SOUTH METROPOLITAN,Primary Schools,PRIMARY SCHOOLS,KIN,Y06,17,27,38,29,24,22,26,26,,,,,,,,,209
5232,EAST KALGOORLIE PRIMARY SCHOOL,4 MAFEKING STREET,KALGOORLIE,WA,6430,PO BOX 10501,KALGOORLIE PO,WA,6433,-30.74742189,121.4854297,POST,08 9068 2400,GOLDFIELDS,Primary Schools,PRIMARY SCHOOLS,KIN,Y06,25,30,21,17,16,20,18,13,,,,,,,,,160
5634,EAST KENWICK PRIMARY SCHOOL,96 KENWICK ROAD,KENWICK,WA,6107,96 KENWICK ROAD,KENWICK,WA,6107,-32.03172749,115.9796025,F110,08 9459 1251,SOUTH METROPOLITAN,Primary Schools,PRIMARY SCHOOLS,KIN,Y06,52,59,43,55,41,58,55,39,,,,,,,,,402
4123,EAST KIMBERLEY COLLEGE,MANGALOO STREET,KUNUNURRA,WA,6743,PO BOX 617,KUNUNURRA,WA,6743,-15.76888254,128.7361825,POST,08 9168 4400,KIMBERLEY,K-12 SCHOOLS,K-12 SCHOOLS,KIN,Y12,64,63,82,81,77,84,94,88,,81,69,60,68,53,55,,1019
5571,EAST MADDINGTON PRIMARY SCHOOL,79 PITCHFORD AVENUE,MADDINGTON,WA,6109,79 PITCHFORD AVENUE,MADDINGTON,WA,6109,-32.05542616,116.00412338,F160,08 9459 1166,SOUTH METROPOLITAN,Primary Schools,PRIMARY SCHOOLS,KIN,Y06,40,64,66,53,59,46,48,53,,,,,,,,,429
5537,EAST MANJIMUP PRIMARY SCHOOL,CNR YOUNG/OCONNOR STREETS,MANJIMUP,WA,6258,O'CONNOR STREET,MANJIMUP,WA,6258,-34.24502646,116.151728,POST,08 9771 9200,SOUTH WEST,Primary Schools,PRIMARY SCHOOLS,KIN,Y06,25,27,34,32,31,23,34,27,,,,,,,,,233
5342,EAST NARROGIN PRIMARY SCHOOL,HOMER STREET,NARROGIN,WA,6312,HOMER STREET,NARROGIN,WA,6312,-32.93547426,117.1883722,POST,08 9882 1600,WHEATBELT,Primary Schools,PRIMARY SCHOOLS,KIN,Y06,14,15,21,18,21,26,23,28,,,,,,,,,166
6065,EAST VICTORIA PARK EDUCATION SUPPORT CENTRE,30 BEATTY AVENUE,EAST VICTORIA PARK,WA,6101,30 BEATTY AVENUE,EAST VICTORIA PARK,WA,6101,-31.97884722,115.90808968,POST,08 6228 0750,SOUTH METROPOLITAN,Education Support Centres,EDUCATION SUPPORT,KIN,Y06,4,8,4,2,3,1,3,5,,,,,,,,,30
5445,EAST VICTORIA PARK PRIMARY SCHOOL,30 BEATTY AVENUE,EAST VICTORIA PARK,WA,6101,30 BEATTY AVENUE,EAST VICTORIA PARK,WA,6101,-31.97884722,115.90808968,E20,08 6228 0700,SOUTH METROPOLITAN,Primary Schools,PRIMARY SCHOOLS,KIN,Y06,44,54,52,51,42,52,36,37,,,,,,,,,368
5681,EAST WAIKIKI PRIMARY SCHOOL,21 GIBB ROAD,COOLOONGUP,WA,6168,21 GIBB ROAD,COOLOONGUP,WA,6168,-32.3040885,115.76053639,H177,08 9591 6600,SOUTH METROPOLITAN,Primary Schools,PRIMARY SCHOOLS,KIN,Y06,40,59,56,54,60,63,55,66,,,,,,,,,453
5577,EAST WANNEROO PRIMARY SCHOOL,32 HIGH ROAD,WANNEROO,WA,6065,32 HIGH ROAD,WANNEROO,WA,6065,-31.7568505,115.81681493,POST,08 6207 3600,NORTH METROPOLITAN,Primary Schools,PRIMARY SCHOOLS,KIN,Y06,40,42,48,45,41,66,48,54,,,,,,,,,384
4182,EASTERN GOLDFIELDS COLLEGE,70 CASSIDY STREET,KALGOORLIE,WA,6430,LOCKED BAG 33,KALGOORLIE PO,WA,6433,-30.75101639,121.47537458,POST,08 9092 3100,GOLDFIELDS,Senior Colleges,SECONDARY SCHOOLS,Y11,Y12,,,,,,,,,,,,,,278,196,,474
6078,EASTERN GOLDFIELDS EDUCATION SUPPORT CENTRE,BOOMERANG CRESCENT,KALGOORLIE,WA,6430,PMB 9,KALGOORLIE,WA,6433,-30.76705062,121.4788763,POST,08 9092 0000,GOLDFIELDS,Education Support Centres,EDUCATION SUPPORT,Y07,Y12,,,,,,,,,,9,9,4,3,4,2,,31
4017,EASTERN HILLS SENIOR HIGH SCHOOL,LOT 289 KEANE STREET EAST,MOUNT HELENA,WA,6082,LOT 289 KEANE STREET EAST,MOUNT HELENA,WA,6082,-31.87396818,116.2200892,POST,08 9573 0300,NORTH METROPOLITAN,Senior High Schools,SECONDARY SCHOOLS,Y07,Y12,,,,,,,,,,170,175,190,167,126,116,,944
4161,EATON COMMUNITY COLLEGE,20 RECREATION DRIVE,EATON,WA,6232,20 RECREATION DRIVE,EATON,WA,6232,-33.3176055,115.72289077,POST,08 9796 7000,SOUTH WEST,Senior High Schools,SECONDARY SCHOOLS,Y07,Y12,,,,,,,,,,120,99,112,106,80,64,,581
5158,EATON PRIMARY SCHOOL,35 DIADEM STREET,EATON,WA,6232,PO BOX 345,BUNBURY,WA,6231,-33.32181891,115.70284312,POST,08 9796 2600,SOUTH WEST,Primary Schools,PRIMARY SCHOOLS,KIN,Y06,53,57,52,70,47,46,47,53,,,,,,,,,425
5677,EDDYSTONE PRIMARY SCHOOL,LITTORINA AVENUE,HEATHRIDGE,WA,6027,LITTORINA AVENUE,HEATHRIDGE,WA,6027,-31.76706411,115.7690002,A263,08 9406 5100,NORTH METROPOLITAN,Primary Schools,PRIMARY SCHOOLS,KIN,Y06,23,34,41,39,36,24,27,32,,,,,,,,,256
5159,EDEN HILL PRIMARY SCHOOL,83A IVANHOE STREET,EDEN HILL,WA,6054,83A IVANHOE STREET,EDEN HILL,WA,6054,-31.89291076,115.94560488,POST,08 6455 0800,NORTH METROPOLITAN,Primary Schools,PRIMARY SCHOOLS,KIN,Y06,60,64,75,67,49,71,67,47,,,,,,,,,500
5657,EDGEWATER PRIMARY SCHOOL,76 TREETOP AVENUE,EDGEWATER,WA,6027,76 TREETOP AVENUE,EDGEWATER,WA,6027,-31.76289339,115.78041313,A265,08 6207 3200,NORTH METROPOLITAN,Primary Schools,PRIMARY SCHOOLS,KIN,Y06,64,61,34,58,60,56,49,44,,,,,,,,,426
1021,EDMUND RICE COLLEGE,3398 BINDOON DEWARS POOL ROAD,BINDOON,WA,6502,3398 BINDOON DEWARS POOL ROAD,BINDOON,WA,6502,-31.31077578,116.18568178,POST,08 9576 5500,NORTH METROPOLITAN,NON-GOVT SCHOOLS,NON-GOVERNMENT,Y07,Y12,,,,,,,,,,19,20,32,27,19,21,,138
5699,EDNEY PRIMARY SCHOOL,204 NEWBURN ROAD,HIGH WYCOMBE,WA,6057,204 NEWBURN ROAD,HIGH WYCOMBE,WA,6057,-31.94734619,116.00690478,POST,08 9454 8377,SOUTH METROPOLITAN,Primary Schools,PRIMARY SCHOOLS,KIN,Y06,60,64,68,45,55,59,44,64,,,,,,,,,459
5805,ELLEN STIRLING PRIMARY SCHOOL,23 STRATHMORE PARKWAY,ELLENBROOK,WA,6069,23 STRATHMORE PARKWAY,ELLENBROOK,WA,6069,-31.7702501,115.97500945,C198,08 6296 7155,NORTH METROPOLITAN,Primary Schools,PRIMARY SCHOOLS,KIN,Y06,81,82,95,102,105,88,121,81,,,,,,,,,755
1424,ELLENBROOK CHRISTIAN COLLEGE,5 SANTONA BOULEVARD,ELLENBROOK,WA,6069,5 SANTONA BOULEVARD,ELLENBROOK,WA,6069,-31.786783,115.959178,POST,08 9297 9297,NORTH METROPOLITAN,NON-GOVT SCHOOLS,NON-GOVERNMENT,KIN,Y12,57,31,25,27,28,18,29,25,,40,44,40,54,49,43,,510
5745,ELLENBROOK PRIMARY SCHOOL,65 FORTESCUE PLACE,ELLENBROOK,WA,6069,LOCKED BAG 3 ELLENBROOK PO,ELLENBROOK,WA,6069,-31.7926892,115.97479916,POST,08 9297 7300,NORTH METROPOLITAN,Primary Schools,PRIMARY SCHOOLS,KIN,Y06,81,85,93,103,85,93,99,82,,,,,,,,,721
4177,ELLENBROOK SECONDARY COLLEGE,100 MAIN STREET,ELLENBROOK,WA,6069,100 MAIN STREET,ELLENBROOK,WA,6069,-31.78554916,115.96428067,C197,08 9297 9700,NORTH METROPOLITAN,Senior High Schools,SECONDARY SCHOOLS,Y07,Y12,,,,,,,,,,216,175,206,339,317,233,,1486
5161,EMBLETON PRIMARY SCHOOL,51 PRIESTLEY STREET,EMBLETON,WA,6062,51 PRIESTLEY STREET,EMBLETON,WA,6062,-31.90187965,115.90980195,C90,08 9338 9700,NORTH METROPOLITAN,Primary Schools,PRIMARY SCHOOLS,KIN,Y06,20,23,22,20,20,22,21,25,,,,,,,,,173
1432,EMMANUEL CATHOLIC COLLEGE,122 HAMMOND ROAD,SUCCESS,WA,6164,122 HAMMOND ROAD,SUCCESS,WA,6164,-32.12857818,115.8400696,POST,08 9414 4000,SOUTH METROPOLITAN,NON-GOVT SCHOOLS,NON-GOVERNMENT,Y07,Y12,,,,,,,,,,192,210,199,173,164,162,,1100
1288,EMMANUEL CHRISTIAN COMMUNITY SCHOOL,3 SALCOTT ROAD,GIRRAWHEEN,WA,6064,3 SALCOTT ROAD,GIRRAWHEEN,WA,6064,-31.84620429,115.84826218,POST,08 9342 7377,NORTH METROPOLITAN,NON-GOVT SCHOOLS,NON-GOVERNMENT,KIN,Y12,54,59,45,60,60,57,44,63,,48,50,37,39,40,17,,673
6152,ENDEAVOUR EDUCATION SUPPORT CENTRE,38 ENDEAVOUR DRIVE,PORT KENNEDY,WA,6172,38 ENDEAVOUR DRIVE,PORT KENNEDY,WA,6172,-32.37037017,115.75072535,POST,08 9524 5000,SOUTH METROPOLITAN,Education Support Centres,EDUCATION SUPPORT,KIN,Y06,1,8,6,3,11,7,9,10,,,,,,,,,55
5750,ENDEAVOUR PRIMARY SCHOOL,38 ENDEAVOUR DRIVE,PORT KENNEDY,WA,6172,38 ENDEAVOUR DRIVE,PORT KENNEDY,WA,6172,-32.37037017,115.75072535,POST,08 9524 5000,SOUTH METROPOLITAN,Primary Schools,PRIMARY SCHOOLS,KIN,Y06,40,65,55,69,51,57,67,64,,,,,,,,,468
5162,ENEABBA PRIMARY SCHOOL,DEWAR STREET,ENEABBA,WA,6518,"PO BOX 107, DEWAR STREET",ENEABBA,WA,6518,-29.82022038,115.2681635,POST,08 9955 1021,MIDWEST,Primary Schools,PRIMARY SCHOOLS,PPR,Y06,,1,3,1,3,2,4,1,,,,,,,,,15
1481,ESPERANCE ANGLICAN COMMUNITY SCHOOL,5 GRIFFIN STREET,ESPERANCE,WA,6450,5 GRIFFIN STREET,ESPERANCE,WA,6450,-33.87140172,121.88445884,POST,08 9083 2444,GOLDFIELDS,NON-GOVT SCHOOLS,NON-GOVERNMENT,Y07,Y12,,,,,,,,,,35,34,39,37,19,13,,177
1266,ESPERANCE CHRISTIAN PRIMARY SCHOOL,2 BLAKE STREET,ESPERANCE,WA,6450,2 BLAKE STREET,ESPERANCE,WA,6450,-33.86426103,121.8773873,POST,08 9071 2703,GOLDFIELDS,NON-GOVT SCHOOLS,NON-GOVERNMENT,KIN,Y06,9,9,14,9,13,,12,8,,,,,,,,,74
6098,ESPERANCE EDUCATION SUPPORT CENTRE,PINK LAKE ROAD,ESPERANCE,WA,6450,PO BOX 696,ESPERANCE,WA,6450,-33.86017872,121.868258,POST,08 9071 9560,GOLDFIELDS,Education Support Centres,EDUCATION SUPPORT,Y07,Y12,,,,,,,,,,4,2,4,3,3,4,,20
5163,ESPERANCE PRIMARY SCHOOL,103 WINDICH STREET,ESPERANCE,WA,6450,PO BOX 150,ESPERANCE,WA,6450,-33.85981206,121.890272,POST,08 9076 3600,GOLDFIELDS,Primary Schools,PRIMARY SCHOOLS,KIN,Y06,48,57,58,50,56,61,74,62,,,,,,,,,466
4018,ESPERANCE SENIOR HIGH SCHOOL,PINK LAKE ROAD,ESPERANCE,WA,6450,PO BOX 465,ESPERANCE,WA,6450,-33.86017872,121.868258,POST,08 9071 9555,GOLDFIELDS,Senior High Schools,SECONDARY SCHOOLS,Y07,Y12,,,,,,,,,,148,187,160,146,156,135,,932
1527,ETON FARM EDUCATION,145 SUMMERFIELD ROAD,SERPENTINE,WA,6125,145 SUMMERFIELD ROAD,SERPENTINE,WA,6125,-32.346434,115.982615,UNKNOWN,UNKNOWN,SOUTH METROPOLITAN,NON-GOVT SCHOOLS,NON-GOVERNMENT,KIN,PPR,13,3,,,,,,,,,,,,,,,16
5790,EXCELSIOR PRIMARY SCHOOL,63 SHREEVE ROAD,CANNING VALE,WA,6155,63 SHREEVE ROAD,CANNING VALE,WA,6155,-32.08181283,115.943661,F307,08 6258 9300,SOUTH METROPOLITAN,Primary Schools,PRIMARY SCHOOLS,KIN,Y06,60,50,49,65,63,46,60,50,,,,,,,,,443
4077,EXMOUTH DISTRICT HIGH SCHOOL,CARPENTER STREET,EXMOUTH,WA,6707,PO BOX 105,EXMOUTH,WA,6707,-21.93316002,114.1242962,POST,08 9947 8888,MIDWEST,District High Schools,DISTRICT HIGH SCHOOLS,KIN,Y12,41,37,39,34,38,36,36,26,,25,30,33,28,26,14,,443
1518,FAIRBRIDGE COLLEGE,"FAIRBRIDGE VILLAGE, SOUTH WEST HIGHWAY",PINJARRA,WA,6208,"FAIRBRIDGE VILLAGE, SOUTH WEST HIGHWAY",PINJARRA,WA,6208,-32.60549898,115.9465216,POST,08 9531 7932,SOUTH METROPOLITAN,NON-GOVT SCHOOLS,NON-GOVERNMENT,Y07,Y12,,,,,,,,,,5,13,22,27,24,44,,135
5167,FAIRVIEW PRIMARY SCHOOL,VERNON STREET,COLLIE,WA,6225,VERNON STREET,COLLIE,WA,6225,-33.34837356,116.1685678,POST,08 9735 2300,SOUTH WEST,Primary Schools,PRIMARY SCHOOLS,KIN,Y06,25,27,31,24,29,25,24,27,,,,,,,,,212
5706,FALCON PRIMARY SCHOOL,30 BALOO CRESCENT,WANNANUP,WA,6210,PO BOX 5018,FALCON,WA,6210,-32.59274022,115.64298077,POST,08 9584 7100,SOUTH METROPOLITAN,Primary Schools,PRIMARY SCHOOLS,KIN,Y06,74,70,69,60,61,71,65,74,,,,,,,,,544
5622,FALLS ROAD PRIMARY SCHOOL,50 FALLS ROAD,LESMURDIE,WA,6076,50 FALLS ROAD,LESMURDIE,WA,6076,-31.99216242,116.0470185,POST,08 9291 2150,SOUTH METROPOLITAN,Primary Schools,PRIMARY SCHOOLS,KIN,Y06,22,41,28,42,48,47,39,46,,,,,,,,,313
4149,FITZROY VALLEY DISTRICT HIGH SCHOOL,FLYNN DRIVE,FITZROY CROSSING,WA,6765,PO BOX 106,FITZROY CROSSING,WA,6765,-18.196468,125.566842,POST,08 9193 0900,KIMBERLEY,District High Schools,DISTRICT HIGH SCHOOLS,KIN,Y12,23,18,25,28,17,16,13,13,,39,40,38,16,21,13,,320
5607,FLINDERS PARK PRIMARY SCHOOL,OFF YATANA ROAD,ALBANY,WA,6330,OFF YATANA ROAD,ALBANY,WA,6330,-34.97824017,117.9300686,POST,08 9844 7200,SOUTH WEST,Primary Schools,PRIMARY SCHOOLS,KIN,Y06,28,63,58,61,48,50,64,48,,,,,,,,,420
5173,FLOREAT PARK PRIMARY SCHOOL,38 CHANDLER AVENUE WEST,FLOREAT,WA,6014,38 CHANDLER AVENUE,FLOREAT,WA,6014,-31.936844,115.79122,D70,08 9205 5600,NORTH METROPOLITAN,Primary Schools,PRIMARY SCHOOLS,KIN,Y06,74,67,64,94,74,76,88,82,,,,,,,,,619
5688,FOREST CRESCENT PRIMARY SCHOOL,83 FOREST CRESCENT,THORNLIE,WA,6108,83 FOREST CRESCENT,THORNLIE,WA,6108,-32.07607019,115.95000698,F335,08 9232 3550,SOUTH METROPOLITAN,Primary Schools,PRIMARY SCHOOLS,KIN,Y06,77,86,85,92,91,88,92,89,,,,,,,,,700
5613,FORRESTDALE PRIMARY SCHOOL,35 BROOME STREET,FORRESTDALE,WA,6112,35 BROOME STREET,FORRESTDALE,WA,6112,-32.15362108,115.94853622,F225,08 9397 8100,SOUTH METROPOLITAN,Primary Schools,PRIMARY SCHOOLS,KIN,Y06,40,47,28,26,23,23,20,17,,,,,,,,,224
5174,FORRESTFIELD PRIMARY SCHOOL,45 SUSSEX ROAD,FORRESTFIELD,WA,6058,45 SUSSEX ROAD,FORRESTFIELD,WA,6058,-31.99141866,116.00883241,POST,08 9453 6277,SOUTH METROPOLITAN,Primary Schools,PRIMARY SCHOOLS,KIN,Y06,30,22,34,26,22,31,13,20,,,,,,,,,198
1412,FOUNDATION CHRISTIAN COLLEGE,115 WALDRON BLVDE,GREENFIELDS,WA,6210,115 WALDRON BLVDE,GREENFIELDS,WA,6210,-32.52931617,115.76228884,POST,08 9586 5444,SOUTH METROPOLITAN,NON-GOVT SCHOOLS,NON-GOVERNMENT,KIN,Y12,25,37,30,36,46,41,47,33,,29,53,41,43,39,28,,528
1470,FOUNTAIN COLLEGE,12 KARRI WAY,FERNDALE,WA,6148,12 KARRI WAY,FERNDALE,WA,6148,-32.03648539,115.92001092,POST,08 9458 3555,SOUTH METROPOLITAN,NON-GOVT SCHOOLS,NON-GOVERNMENT,KIN,Y12,23,20,23,33,27,18,28,28,,42,31,28,27,28,11,,367
1398,FRANCIS JORDAN CATHOLIC SCHOOL,25 PETERBOROUGH DRIVE,CURRAMBINE,WA,6028,25 PETERBOROUGH DRIVE,CURRAMBINE,WA,6028,-31.73113849,115.73842645,POST,08 9305 4990,NORTH METROPOLITAN,NON-GOVT SCHOOLS,NON-GOVERNMENT,KIN,Y06,40,35,45,50,44,40,47,56,,,,,,,,,357
5176,FRANKLAND RIVER PRIMARY SCHOOL,MOIR STREET,FRANKLAND RIVER,WA,6396,C/- POST OFFICE,FRANKLAND RIVER,WA,6396,-34.36312,117.078601,POST,08 9855 2213,SOUTH WEST,Primary Schools,PRIMARY SCHOOLS,KIN,Y06,6,8,7,9,3,11,5,11,,,,,,,,,60
1373,FREDERICK IRWIN ANGLICAN SCHOOL,36-66 GORDON ROAD,MANDURAH,WA,6210,36-66 GORDON ROAD,MANDURAH,WA,6210,-32.50869435,115.7530802,POST,08 9537 0000,SOUTH METROPOLITAN,NON-GOVT SCHOOLS,NON-GOVERNMENT,KIN,Y12,79,81,76,87,86,86,112,108,,156,167,157,146,140,119,,1600
1351,FREMANTLE CHRISTIAN COLLEGE,110 ROCKINGHAM ROAD,HAMILTON HILL,WA,6163,110 ROCKINGHAM ROAD,HAMILTON HILL,WA,6163,-32.0843654,115.77519843,POST,08 9430 6635,SOUTH METROPOLITAN,NON-GOVT SCHOOLS,NON-GOVERNMENT,KIN,Y11,16,21,24,24,19,28,17,35,,38,49,29,23,15,,,338
4206,FREMANTLE COLLEGE,LEFROY ROAD,BEACONSFIELD,WA,6162,LEFROY ROAD,BEACONSFIELD,WA,6162,-32.06791,115.76798,POST,08 9338 8900,SOUTH METROPOLITAN,Senior High Schools,SECONDARY SCHOOLS,Y07,Y12,,,,,,,,,,251,269,246,185,149,105,,1205
6040,FREMANTLE LANGUAGE DEVELOPMENT CENTRE,19 DRURY STREET,WILLAGEE,WA,6156,PO BOX 1031,WILLAGEE,WA,6156,-32.05149344,115.80434605,H335,08 9312 4850,SOUTH METROPOLITAN,LANGUAGE DEVELOPMENT CENTRES,EDUCATION SUPPORT,KIN,Y03,32,53,61,46,35,,,,,,,,,,,,227
5420,FREMANTLE PRIMARY SCHOOL,1 BRENNAN STREET,FREMANTLE,WA,6160,1 BRENNAN STREET,FREMANTLE,WA,6160,-32.05883702,115.75353531,G120,08 9432 1400,SOUTH METROPOLITAN,Primary Schools,PRIMARY SCHOOLS,KIN,Y06,40,45,48,50,37,32,29,41,,,,,,,,,322
5105,FRESHWATER BAY PRIMARY SCHOOL,CNR BAY VIEW TERRACE/PRINCESS ROADS,CLAREMONT,WA,6010,CNR BAY VIEW TERRACE/PRINCESS ROADS,CLAREMONT,WA,6010,-31.98588984,115.7823097,D310,08 6458 7000,NORTH METROPOLITAN,Primary Schools,PRIMARY SCHOOLS,KIN,Y06,68,55,50,72,63,63,60,46,,,,,,,,,477
5180,GAIRDNER PRIMARY SCHOOL,45 GAIRDNER ROAD SOUTH,GAIRDNER,WA,6337,45 GAIRDNER ROAD SOUTH,GAIRDNER,WA,6337,-34.2108414,118.9385849,POST,08 9836 1014,SOUTH WEST,Primary Schools,PRIMARY SCHOOLS,KIN,Y06,2,3,2,2,1,4,7,3,,,,,,,,,24
5181,GASCOYNE JUNCTION REMOTE COMMUNITY SCHOOL,36 GREGORY STREET,GASCOYNE JUNCTION,WA,6705,PMB 102,CARNARVON,WA,6701,-25.05320773,115.2083775,POST,08 9943 0515,MIDWEST,Primary Schools,PRIMARY SCHOOLS,PPR,Y06,,1,,,,1,2,1,,,,,,,,,5
6159,GEOGRAPHE EDUCATION SUPPORT CENTRE,LOT 153 CLYDEBANK AVENUE,BUSSELTON,WA,6280,LOT 153 CLYDEBANK AVENUE,BUSSELTON,WA,6280,-33.66661113,115.3288339,POST,08 9754 0103,SOUTH WEST,Education Support Centres,EDUCATION SUPPORT,KIN,Y12,1,4,1,1,1,,2,4,,5,,,5,9,7,,40
5775,GEOGRAPHE PRIMARY SCHOOL,CLYDEBANK AVENUE,BUSSELTON,WA,6280,CLYDEBANK AVENUE,BUSSELTON,WA,6280,-33.66661113,115.3288339,POST,08 9754 0100,SOUTH WEST,Primary Schools,PRIMARY SCHOOLS,KIN,Y06,40,55,57,58,54,63,71,62,,,,,,,,,460
1429,GEORGIANA MOLLOY ANGLICAN SCHOOL,2 HAWKER APPROACH,YALYALUP,WA,6280,2 HAWKER APPROACH,YALYALUP,WA,6280,-33.6606425,115.38154954,POST,08 9752 5252,SOUTH WEST,NON-GOVT SCHOOLS,NON-GOVERNMENT,KIN,Y12,51,51,60,71,56,73,91,75,,123,115,102,105,85,66,,1124
1484,GERALDTON FLEXIBLE LEARNING CENTRE,15 BAYLY STREET,GERALDTON,WA,6530,15 BAYLY STREET,GERALDTON,WA,6530,-28.76770179,114.6188153,POST,08 9965 2264,MIDWEST,NON-GOVT SCHOOLS,NON-GOVERNMENT,Y07,Y12,,,,,,,,,,5,9,21,18,20,19,4,96
1403,GERALDTON GRAMMAR SCHOOL,134 GEORGE ROAD,GERALDTON,WA,6530,134 GEORGE ROAD,GERALDTON,WA,6530,-28.76195313,114.621025,POST,08 9965 7800,MIDWEST,NON-GOVT SCHOOLS,NON-GOVERNMENT,KIN,Y12,30,24,19,29,29,31,36,43,,49,37,43,41,55,44,,510
5183,GERALDTON PRIMARY SCHOOL,75 FITZGERALD STREET,GERALDTON,WA,6530,PO BOX 7207,GERALDTON PO,WA,6531,-28.77863662,114.60805563,POST,08 9921 2311,MIDWEST,Primary Schools,PRIMARY SCHOOLS,KIN,Y06,47,43,36,47,41,63,54,56,,,,,,,,,387
4163,GERALDTON SENIOR HIGH SCHOOL,CARSON TERRACE,GERALDTON,WA,6530,PMB 10100,GERALDTON PO,WA,6531,-28.78068474,114.6117092,POST,08 9965 8400,MIDWEST,Senior High Schools,SECONDARY SCHOOLS,Y07,Y12,,,,,,,,,,215,197,,176,199,214,,1001
5540,GIBBS STREET PRIMARY SCHOOL,79-93 GIBBS STREET,EAST CANNINGTON,WA,6107,79-93 GIBBS STREET,EAST CANNINGTON,WA,6107,-32.00835874,115.95375209,E310,08 9458 6899,SOUTH METROPOLITAN,Primary Schools,PRIMARY SCHOOLS,KIN,Y06,80,82,67,63,65,60,60,42,,,,,,,,,519
5726,GIDGEGANNUP PRIMARY SCHOOL,BUNNING ROAD,GIDGEGANNUP,WA,6083,PO BOX 119,GIDGEGANNUP,WA,6083,-31.79416905,116.1954072,POST,08 9578 4000,NORTH METROPOLITAN,Primary Schools,PRIMARY SCHOOLS,KIN,Y06,23,24,24,21,28,29,29,32,,,,,,,,,210
4031,GILMORE COLLEGE,DARGIN PLACE,ORELIA,WA,6167,PO BOX 86,KWINANA,WA,6966,-32.238266,115.814803,H240,08 6595 2700,SOUTH METROPOLITAN,Senior High Schools,SECONDARY SCHOOLS,Y07,Y12,,,,,,,,,,231,225,202,210,180,147,,1195
4135,GINGIN DISTRICT HIGH SCHOOL,1 DAW STREET,GINGIN,WA,6503,1 DAW STREET,GINGIN,WA,6503,-31.34427642,115.9123687,POST,08 9575 5300,NORTH METROPOLITAN,District High Schools,DISTRICT HIGH SCHOOLS,KIN,Y10,19,23,28,26,17,24,25,19,,25,16,25,26,,,,273
4110,GIRRAWHEEN SENIOR HIGH SCHOOL,39 CALVERT WAY,GIRRAWHEEN,WA,6064,39 CALVERT WAY,GIRRAWHEEN,WA,6064,-31.83648977,115.84187032,B130,08 9247 0555,NORTH METROPOLITAN,Senior High Schools,SECONDARY SCHOOLS,Y07,Y12,,,,,,,,,,66,83,80,84,61,56,,430
6011,GLADYS NEWTON SCHOOL,93 BALGA AVENUE,BALGA,WA,6061,93 BALGA AVENUE,BALGA,WA,6061,-31.85488957,115.84735801,B190,08 9413 1900,NORTH METROPOLITAN,Education Support Schools,EDUCATION SUPPORT,KIN,Y12,2,6,7,7,5,4,1,5,,2,5,9,6,10,12,,81
8367,GLEN FORREST COMMUNITY KINDERGARTEN,47A MARNIE ROAD,GLEN FORREST,WA,6071,47A MARNIE ROAD,GLEN FORREST,WA,6071,-31.90683334,116.1023159,POST,08 9298 9250,NORTH METROPOLITAN,Community Kindergartens,COMMUNITY KINDERGARTENS,KIN,KIN,11,,,,,,,,,,,,,,,,11
5186,GLEN FORREST PRIMARY SCHOOL,TILLBROOK STREET,GLEN FORREST,WA,6071,TILLBROOK STREET,GLEN FORREST,WA,6071,-31.91537475,116.100319,POST,08 9298 8202,NORTH METROPOLITAN,Primary Schools,PRIMARY SCHOOLS,KIN,Y06,16,24,34,23,24,28,30,29,,,,,,,,,208
5769,GLEN HUON PRIMARY SCHOOL,MONASH BOULEVARD,EATON,WA,6232,MONASH BOULEVARD,EATON,WA,6232,-33.31523808,115.7261548,POST,08 9796 7500,SOUTH WEST,Primary Schools,PRIMARY SCHOOLS,KIN,Y06,61,61,67,75,66,53,54,68,,,,,,,,,505
5655,GLENCOE PRIMARY SCHOOL,GLENCOE PARADE,HALLS HEAD,WA,6210,GLENCOE PARADE,HALLS HEAD,WA,6210,-32.54229018,115.7041404,POST,08 9586 6800,SOUTH METROPOLITAN,Primary Schools,PRIMARY SCHOOLS,KIN,Y06,50,52,47,48,40,51,52,52,,,,,,,,,392
5534,GLENDALE PRIMARY SCHOOL,GLENDALE AVENUE,HAMERSLEY,WA,6022,PO BOX 2064,WARWICK,WA,6024,-31.84933302,115.8076235,POST,08 9447 4199,NORTH METROPOLITAN,Primary Schools,PRIMARY SCHOOLS,KIN,Y06,52,42,46,37,36,37,41,36,,,,,,,,,327
5630,GLENGARRY PRIMARY SCHOOL,DOVERIDGE DRIVE,DUNCRAIG,WA,6023,25 DOVERIDGE DRIVE,DUNCRAIG,WA,6023,-31.82816781,115.7820552,A170,08 9378 5678,NORTH METROPOLITAN,Primary Schools,PRIMARY SCHOOLS,KIN,Y06,46,51,44,53,56,54,52,59,,,,,,,,,415
4078,GNOWANGERUP DISTRICT HIGH SCHOOL,YOUGENUP ROAD,GNOWANGERUP,WA,6335,YOUGENUP ROAD,GNOWANGERUP,WA,6335,-33.938232,118.00801,POST,08 9827 2100,SOUTH WEST,District High Schools,DISTRICT HIGH SCHOOLS,KIN,Y10,16,14,14,15,14,11,14,10,,6,5,8,5,,,,132
5838,GOLDEN BAY PRIMARY SCHOOL,9 THUNDELARRA DRIVE,GOLDEN BAY,WA,6174,PO BOX 690,MANDURAH,WA,6210,-32.42313769,115.7596842,POST,08 9583 8800,SOUTH METROPOLITAN,Primary Schools,PRIMARY SCHOOLS,KIN,Y06,75,70,67,64,54,54,64,43,,,,,,,,,491
1390,GOLDEN HILL STEINER SCHOOL,222 SCOTSDALE ROAD,DENMARK,WA,6333,222 SCOTSDALE ROAD,DENMARK,WA,6333,-34.94203668,117.3591392,POST,08 9848 1811,SOUTH WEST,NON-GOVT SCHOOLS,NON-GOVERNMENT,KIN,Y06,11,9,14,13,6,14,13,13,,,,,,,,,93
1439,GOLDFIELDS BAPTIST COLLEGE,4 MAGUIRE STREET,KALGOORLIE,WA,6430,4 MAGUIRE STREET,KALGOORLIE,WA,6430,-30.77620533,121.4630845,POST,08 9022 7535,GOLDFIELDS,NON-GOVT SCHOOLS,NON-GOVERNMENT,KIN,Y10,24,22,18,25,24,17,21,27,,30,34,27,29,,,,298
1245,GOOD SHEPHERD CATHOLIC PRIMARY SCHOOL,15 ARBUTHNOT STREET,KELMSCOTT,WA,6111,15 ARBUTHNOT STREET,KELMSCOTT,WA,6111,-32.12560377,116.0262673,POST,08 9496 9200,SOUTH METROPOLITAN,NON-GOVT SCHOOLS,NON-GOVERNMENT,KIN,Y06,22,27,24,24,23,27,23,27,,,,,,,,,197
1300,GOOD SHEPHERD CATHOLIC SCHOOL,215 MORLEY DRIVE,LOCKRIDGE,WA,6054,215 MORLEY DRIVE,LOCKRIDGE,WA,6054,-31.88645235,115.9432801,POST,08 6278 9500,NORTH METROPOLITAN,NON-GOVT SCHOOLS,NON-GOVERNMENT,KIN,Y06,60,60,58,62,59,64,54,56,,,,,,,,,473
5650,GOOLLELAL PRIMARY SCHOOL,30 CADOGAN STREET,KINGSLEY,WA,6026,30 CADOGAN STREET,KINGSLEY,WA,6026,-31.81486804,115.80138525,A305,08 6207 2100,NORTH METROPOLITAN,Primary Schools,PRIMARY SCHOOLS,KIN,Y06,40,33,30,37,35,21,32,19,,,,,,,,,247
5713,GOOMALLING PRIMARY SCHOOL,65 HODDY STREET,GOOMALLING,WA,6460,PO BOX 146,GOOMALLING,WA,6460,-31.30541151,116.82890894,POST,08 9629 1055,WHEATBELT,Primary Schools,PRIMARY SCHOOLS,KIN,Y06,2,4,5,8,9,4,7,6,,,,,,,,,45
5551,GOOSEBERRY HILL PRIMARY SCHOOL,24 LEDGER ROAD,GOOSEBERRY HILL,WA,6076,24 LEDGER ROAD,GOOSEBERRY HILL,WA,6076,-31.95646856,116.05602004,E210,08 9257 4600,SOUTH METROPOLITAN,Primary Schools,PRIMARY SCHOOLS,KIN,Y06,42,54,69,56,63,61,69,54,,,,,,,,,468
5192,GOSNELLS PRIMARY SCHOOL,173 HICKS STREET,GOSNELLS,WA,6110,173 HICKS STREET,GOSNELLS,WA,6110,-32.07774624,116.00352235,F290,08 9398 2250,SOUTH METROPOLITAN,Primary Schools,PRIMARY SCHOOLS,KIN,Y06,43,51,44,50,63,56,55,52,,,,,,,,,414
4020,GOVERNOR STIRLING SENIOR HIGH SCHOOL,25 THIRD AVENUE,WOODBRIDGE,WA,6056,25 THIRD AVENUE,WOODBRIDGE,WA,6056,-31.88893826,115.98880562,C200,08 6274 0300,NORTH METROPOLITAN,Senior High Schools,SECONDARY SCHOOLS,Y07,Y12,,,,,,,,,,180,184,151,146,157,127,,945
1371,GRACE CHRISTIAN SCHOOL,22 VITTORIA ROAD,BUNBURY,WA,6230,22 VITTORIA ROAD,BUNBURY,WA,6230,-33.33832794,115.6810759,POST,08 9726 4200,SOUTH WEST,NON-GOVT SCHOOLS,NON-GOVERNMENT,KIN,Y12,42,43,42,46,41,48,51,58,,50,34,43,43,26,14,,581
5861,GRANDIS PRIMARY SCHOOL,220 GRANDIS BOULEVARD,BANKSIA GROVE,WA,6031,220 GRANDIS BOULEVARD,BANKSIA GROVE,WA,6031,-31.693914,115.807747,UNKNOWN,08 9233 6500,NORTH METROPOLITAN,Primary Schools,PRIMARY SCHOOLS,KIN,Y06,87,81,46,35,24,14,22,11,,,,,,,,,320
1431,GREAT SOUTHERN GRAMMAR,244 NANARUP ROAD,LOWER KALGAN,WA,6330,244 NANARUP ROAD,LOWER KALGAN,WA,6330,-34.94755539,117.9707332,POST,08 9844 0300,SOUTH WEST,NON-GOVT SCHOOLS,NON-GOVERNMENT,KIN,Y12,21,14,10,11,21,24,34,36,,63,101,96,81,98,83,,693
5195,GREENBUSHES PRIMARY SCHOOL,7 BLACKWOOD ROAD,GREENBUSHES,WA,6254,7 BLACKWOOD ROAD,GREENBUSHES,WA,6254,-33.85097107,116.05941215,POST,08 9764 3535,SOUTH WEST,Primary Schools,PRIMARY SCHOOLS,KIN,Y06,8,1,6,3,7,1,8,5,,,,,,,,,39
5708,GREENFIELDS PRIMARY SCHOOL,9 ZAMBESI DRIVE,GREENFIELDS,WA,6210,9 ZAMBESI DRIVE,GREENFIELDS,WA,6210,-32.53397367,115.7509389,POST,08 9586 0600,SOUTH METROPOLITAN,Primary Schools,PRIMARY SCHOOLS,KIN,Y06,47,38,51,53,42,42,49,54,,,,,,,,,376
5196,GREENMOUNT PRIMARY SCHOOL,50-68 INNAMINCKA ROAD,GREENMOUNT,WA,6056,50-68 INNAMINCKA ROAD,GREENMOUNT,WA,6056,-31.89659298,116.04743363,C260,08 9257 0600,NORTH METROPOLITAN,Primary Schools,PRIMARY SCHOOLS,KIN,Y06,48,47,57,44,40,57,50,29,,,,,,,,,372
4122,GREENWOOD COLLEGE,79 COOLIBAH DRIVE,GREENWOOD,WA,6024,79 COOLIBAH DRIVE,GREENWOOD,WA,6024,-31.82628484,115.79144394,A350,08 9243 9200,NORTH METROPOLITAN,Senior High Schools,SECONDARY SCHOOLS,Y07,Y12,,,,,,,,,,187,169,198,185,196,143,,1078
5818,GREENWOOD PRIMARY SCHOOL,12 MERIVALE WAY,GREENWOOD,WA,6024,12 MERIVALE WAY,GREENWOOD,WA,6024,-31.82890115,115.80902007,A320,08 9243 1143,NORTH METROPOLITAN,Primary Schools,PRIMARY SCHOOLS,KIN,Y06,47,48,38,49,59,49,53,44,,,,,,,,,387
5623,GROVELANDS PRIMARY SCHOOL,14 GROVELANDS DRIVE,CAMILLO,WA,6111,14 GROVELANDS DRIVE,CAMILLO,WA,6111,-32.12023725,115.9990409,POST,08 9496 9000,SOUTH METROPOLITAN,Primary Schools,PRIMARY SCHOOLS,KIN,Y06,36,45,48,50,47,57,32,51,,,,,,,,,366
1074,GUILDFORD GRAMMAR SCHOOL,11 TERRACE ROAD,GUILDFORD,WA,6055,11 TERRACE ROAD,GUILDFORD,WA,6055,-31.894036,115.981892,POST,08 9377 9222,NORTH METROPOLITAN,NON-GOVT SCHOOLS,NON-GOVERNMENT,KIN,Y12,38,36,43,31,45,60,58,58,,113,122,126,119,140,109,,1098
5197,GUILDFORD PRIMARY SCHOOL,125 HELENA STREET,GUILDFORD,WA,6055,125 HELENA STREET,GUILDFORD,WA,6055,-31.90233645,115.96780614,C310,08 6216 1200,NORTH METROPOLITAN,Primary Schools,PRIMARY SCHOOLS,KIN,Y06,40,47,40,32,31,35,38,33,,,,,,,,,296
6075,GWYNNE PARK EDUCATION SUPPORT CENTRE,TIJUANA ROAD,ARMADALE,WA,6112,TIJUANA ROAD,ARMADALE,WA,6112,-32.1618132,115.999196,POST,08 9497 3122,SOUTH METROPOLITAN,Education Support Centres,EDUCATION SUPPORT,KIN,Y06,6,9,12,9,11,4,5,12,,,,,,,,,68
5615,GWYNNE PARK PRIMARY SCHOOL,TIJUANA ROAD,ARMADALE,WA,6112,TIJUANA ROAD,ARMADALE,WA,6112,-32.1618132,115.999196,F220,08 9399 4200,SOUTH METROPOLITAN,Primary Schools,PRIMARY SCHOOLS,KIN,Y06,60,51,59,55,62,60,56,58,,,,,,,,,461
1193,HALE SCHOOL,160 HALE ROAD,WEMBLEY DOWNS,WA,6019,160 HALE ROAD,WEMBLEY DOWNS,WA,6019,-31.91232249,115.7837828,POST,08 9347 9777,NORTH METROPOLITAN,NON-GOVT SCHOOLS,NON-GOVERNMENT,PPR,Y12,,24,47,49,48,75,74,78,,183,201,207,204,206,194,,1590
5678,HALIDON PRIMARY SCHOOL,38 HALIDON STREET,KINGSLEY,WA,6026,38 HALIDON STREET,KINGSLEY,WA,6026,-31.80783809,115.80142703,POST,08 6207 2500,NORTH METROPOLITAN,Primary Schools,PRIMARY SCHOOLS,KIN,Y06,35,39,29,30,35,28,26,38,,,,,,,,,260
4145,HALLS CREEK DISTRICT HIGH SCHOOL,THOMAS STREET,HALLS CREEK,WA,6770,PO BOX 117,HALLS CREEK,WA,6770,-18.22567554,127.669356,POST,08 9171 5555,KIMBERLEY,District High Schools,DISTRICT HIGH SCHOOLS,KIN,Y12,24,20,24,21,27,26,22,35,,30,28,33,21,24,12,,347
4166,HALLS HEAD COLLEGE,CASUARINA DRIVE,HALLS HEAD,WA,6210,CASUARINA DRIVE,HALLS HEAD,WA,6210,-32.55444963,115.6942404,POST,08 9581 0600,SOUTH METROPOLITAN,Senior High Schools,SECONDARY SCHOOLS,Y07,Y12,,,,,,,,,,245,258,288,229,233,177,,1430
6155,HALLS HEAD COLLEGE EDUCATION SUPPORT CENTRE,CASUARINA DRIVE,HALLS HEAD,WA,6210,CASUARINA DRIVE,HALLS HEAD,WA,6210,-32.55444963,115.6942404,POST,08 9581 0613,SOUTH METROPOLITAN,Education Support Centres,EDUCATION SUPPORT,Y07,Y10,,,,,,,,,,10,9,14,18,,,,51
5738,HALLS HEAD PRIMARY SCHOOL,21 OLEANDER PLACE,HALLS HEAD,WA,6210,21 OLEANDER PLACE,HALLS HEAD,WA,6210,-32.55019839,115.69497474,POST,08 9584 6900,SOUTH METROPOLITAN,Primary Schools,PRIMARY SCHOOLS,KIN,Y06,37,41,48,51,48,46,52,61,,,,,,,,,384
1475,HAMMOND PARK CATHOLIC PRIMARY SCHOOL,25 WOODROW AVE,HAMMOND PARK,WA,6164,25 WOODROW AVE,HAMMOND PARK,WA,6164,-32.17296139,115.84873464,POST,08 6595 6100,SOUTH METROPOLITAN,NON-GOVT SCHOOLS,NON-GOVERNMENT,KIN,Y06,64,60,57,58,53,38,36,17,,,,,,,,,383
5823,HAMMOND PARK PRIMARY SCHOOL,10 EUCALYPTUS DRIVE,HAMMOND PARK,WA,6164,10 EUCALYPTUS DRIVE,HAMMOND PARK,WA,6164,-32.16737931,115.84353249,POST,08 9494 3200,SOUTH METROPOLITAN,Primary Schools,PRIMARY SCHOOLS,KIN,Y06,98,99,107,113,91,85,89,72,,,,,,,,,754
4210,HAMMOND PARK SECONDARY COLLEGE,55 IRVINE PARADE,HAMMOND PARK,WA,6164,55 IRVINE PARADE,HAMMOND PARK,WA,6164,-32.172219,115.850504,UNKNOWN,08 9395 3800,SOUTH METROPOLITAN,Senior High Schools,SECONDARY SCHOOLS,Y07,Y07,,,,,,,,,,175,,,,,,,175
